id,name,latitude,longitude,street,house_number,zip,city,email,phone_number,website,acceptance_age,total_places,places_under_3,pedagogical_focus,thematic_focus,image_url,day,opening_time,closing_time,day,opening_time,closing_time,day,opening_time,closing_time,day,opening_time,closing_time,day,opening_time,closing_time
2401,Kita Lobeckstr. 11/Kigä City,52.50025476595674,13.404844737211254,Lobeckstr.,11,10969,Berlin,Kita.Lobeckstr11@kindergaertencity.de,+49-30-30648793,http://www.kindergaerten-city.de/lobeckstr-11,8,110,47,"[""Offene-Arbeit""]","[""sprachliche Bildung""]",https://kita-navigator.berlin.de/bilder/einrichtung/2401,MONTAG,07:00,17:00,DIENSTAG,07:00,17:00,MITTWOCH,07:00,17:00,DONNERSTAG,07:00,17:00,FREITAG,07:00,17:00
146129,Nestwärme,52.5033430341274,13.404498657902717,Ritterstr.,36,10969,Berlin,ritterstrasse@nestwaerme-berlin.de,+49-30-24729098,http://www.kita-ritterburg.de,2,105,21,"[""Early Excellence-Ansatz""]","[""Interkulturelle Pädagogik""]",https://kita-navigator.berlin.de/fallback_einrichtung.jpg,MONTAG,07:15,17:45,DIENSTAG,07:15,17:45,MITTWOCH,07:15,17:45,DONNERSTAG,07:15,17:45,FREITAG,07:15,17:45
379,Ev. Kita St. Simeon,52.50047347097207,13.406595921176553,Wassertorstr.,21A,10969,Berlin,st.simeon-kita@evkvbmn.de,+49-30-6142300,http://evkvbmn.de,12,90,0,"[""Situationsansatz""]","[""Integration von Kindern mit Behinderung"", ""Religionspädagogik"", ""Körper und Bewegung"", ""Sprache""]",https://kita-navigator.berlin.de/fallback_einrichtung.jpg,MONTAG,07:00,17:00,DIENSTAG,07:00,17:00,MITTWOCH,07:00,17:00,DONNERSTAG,07:00,17:00,FREITAG,07:00,17:00
2432,EKT - Zappergeck,52.49899372727877,13.400280633817914,Alexandrinenstr.,1B,10969,Berlin,zappergeck-ev@web.de,+49-30-6156248,,18,25,3,"[""Situationsansatz""]",[],https://kita-navigator.berlin.de/fallback_einrichtung.jpg,MONTAG,08:00,17:00,DIENSTAG,08:00,17:00,MITTWOCH,08:00,17:00,DONNERSTAG,08:00,17:00,FREITAG,08:00,16:30
2426,Waldorfkindergarten Kreuzberg,52.50345253667118,13.399026961408854,Alte Jakobstr.,10,10969,Berlin,wakigakreuzberg@web.de,+49-30-6143087,,18,98,13,"[""Waldorfpädgogik""]","[""Integration von Kindern mit Behinderung""]",https://kita-navigator.berlin.de/fallback_einrichtung.jpg,MONTAG,07:30,16:30,DIENSTAG,07:30,16:30,MITTWOCH,07:30,16:30,DONNERSTAG,07:30,16:30,FREITAG,07:30,16:30
1012,Kita KOTTI,52.50091327456798,13.397752004281246,Alte Jakobstr.,172,10969,Berlin,kita.altejakob@kottiberlin.de,+49-30-6161985,http://www.kotti-berlin.de,12,25,8,"[""EEC (Early Excellence)""]","[""Sprache""]",https://kita-navigator.berlin.de/fallback_einrichtung.jpg,MONTAG,07:00,17:00,DIENSTAG,07:00,17:00,MITTWOCH,07:00,17:00,DONNERSTAG,07:00,17:00,FREITAG,07:00,17:00
1579,Kita Milchstraße ,52.50237522286624,13.397884481790937,Alte Jakobstr.,135,10969,Berlin,kita.milchstrasse@web.de,+49-30-2515532,http://www.kita-milchstrasse.de,12,62,12,"[""Ansatz von Emmi Pikler"", ""Montessori-Pädagogik""]","[""Ästhetische Bildung (Musik und Kunst)"", ""Natur- und Umweltpädagogik"", ""Körper und Bewegung"", ""Integration von Kindern mit Behinderung""]",https://kita-navigator.berlin.de/fallback_einrichtung.jpg,MONTAG,07:30,16:30,DIENSTAG,07:30,16:30,MITTWOCH,07:30,16:30,DONNERSTAG,07:30,16:30,FREITAG,07:30,16:30
339129,Wildfang Kindergarten auf dem Dach,52.503055618265506,13.409997371380896,Prinzenstr.,85D,10969,Berlin,service@wildfang-kindergarten.de,+49-30-62739764,http://www.wildfang-kindergarten.de,9,73,20,"[""Early Excellence""]",[],https://kita-navigator.berlin.de/fallback_einrichtung.jpg,MONTAG,08:00,17:00,DIENSTAG,08:00,17:00,MITTWOCH,08:00,17:00,DONNERSTAG,08:00,17:00,FREITAG,08:00,17:00
1612,EKT - Wohnhof e.V.,52.50452467418794,13.39540611277954,Markgrafenstr.,8,10969,Berlin,kinderladen-wohnhof@gmx.de,+49-30-2510316,,15,15,6,"[""Situationsansatz""]",[],https://kita-navigator.berlin.de/fallback_einrichtung.jpg,MONTAG,07:30,16:30,DIENSTAG,07:30,16:30,MITTWOCH,07:30,16:30,DONNERSTAG,07:30,16:30,FREITAG,07:30,16:30
1598,EKT - Kindervilla Waldemar,52.496139426094956,13.400108770433548,Johanniterstr.,17,10961,Berlin,johanniterstrasse@kindervilla-waldemar.de,+49-30-617790913,,11,102,32,"[""Situationsansatz"", ""Ansatz von Emmi Pikler""]","[""Integration von Kindern mit Behinderung"", ""Körper und Bewegung"", ""Natur- und Umweltpädagogik"", ""Interkulturelle Pädagogik"", ""Gesundheit""]",https://kita-navigator.berlin.de/fallback_einrichtung.jpg,MONTAG,07:00,17:00,DIENSTAG,07:00,17:00,MITTWOCH,07:00,17:00,DONNERSTAG,07:00,17:00,FREITAG,07:00,17:00
777,Kita Markgrafenstraße,52.50424614245604,13.39449242767585,Markgrafenstr.,80,10969,Berlin,markgrafenstrasse@inakindergarten.de,+49-30-81887961,http://www.inakindergarten.de,2,100,40,"[""Situationsansatz""]","[""Gesundheit"", ""Körper und Bewegung"", ""Interkulturelle Pädagogik""]",https://kita-navigator.berlin.de/bilder/einrichtung/777,MONTAG,07:00,17:00,DIENSTAG,07:00,17:00,MITTWOCH,07:00,17:00,DONNERSTAG,07:00,17:00,FREITAG,07:00,17:00
2875,Kita Stallschreiber Str.13,52.50615428303529,13.40881873934677,Stallschreiberstr.,13,10969,Berlin,stallschreiberstrasse@ortefuerkinder.de,+49-30-695399990,http://www.ortefuerkinder.de/unsere-kitas/stallschreiberstr-/,6,116,39,"[""Offene-Arbeit"", ""EEC-Ansatz""]","[""Körper und Bewegung"", ""Sprachförderung""]",https://kita-navigator.berlin.de/bilder/einrichtung/2875,MONTAG,08:00,17:00,DIENSTAG,08:00,17:00,MITTWOCH,08:00,17:00,DONNERSTAG,08:00,17:00,FREITAG,08:00,17:00
915329,Kleiner Fratz,52.5065201862283,13.408214654997376,Alexandrinenstr.,56,10179,Berlin,mauerfratz@kleinerfratz.berlin,+49-30-28444482,http://www.kleiner-fratz-berlin.de,2,55,12,"[""Offene-Arbeit""]","[""Interkulturelle Pädagogik""]",https://kita-navigator.berlin.de/bilder/einrichtung/915329,MONTAG,06:30,17:30,DIENSTAG,06:30,17:30,MITTWOCH,06:30,17:30,DONNERSTAG,06:30,17:30,FREITAG,06:30,17:30
2665,EKT- Kindervilla Waldemar (Springerareal),52.50582308599582,13.395280726552347,Markgrafenstr.,15A,10969,Berlin,villa.waldemar@web.de,+49-30-25942951,,11,80,24,"[""Situationsansatz"", ""Ansatz von Emmi Pikler""]","[""Integration von Kindern mit Behinderung"", ""Naturwissenschaftliche Grunderfahrung"", ""Gesundheit"", ""Körper und Bewegung"", ""Natur- und Umweltpädagogik"", ""Interkulturelle Pädagogik""]",https://kita-navigator.berlin.de/fallback_einrichtung.jpg,MONTAG,07:00,17:00,DIENSTAG,07:00,17:00,MITTWOCH,07:00,17:00,DONNERSTAG,07:00,17:00,FREITAG,07:00,17:00
1211,Kita Oranienstraße,52.504073055401435,13.412247375021881,Oranienstr.,56,10969,Berlin,kita-oranienstrasse@pfefferwerk.de,+49-30-44383151,http://www.pfefferwerk.de,8,140,0,"[""Situationsansatz"", ""Ansatz von Emmi Pikler"", ""Inklusion / Integration , altagsintegrierte Sprachbildung""]","[""Körper und Bewegung"", ""Gesundheit"", ""Integration von Kindern mit Beeinträchtigung""]",https://kita-navigator.berlin.de/bilder/einrichtung/1211,MONTAG,07:00,17:00,DIENSTAG,07:00,17:00,MITTWOCH,07:00,17:00,DONNERSTAG,07:00,17:00,FREITAG,07:00,17:00
1583,EKT Siebenschläfer,52.49667354353493,13.410383803464544,Böcklerstr.,8,10969,Berlin,kita.siebenschlaefer@web.de,+49-30,,24,20,2,"[""Situationsansatz""]","[""Integration von Kindern mit Behinderung""]",https://kita-navigator.berlin.de/fallback_einrichtung.jpg,MONTAG,09:00,16:00,DIENSTAG,09:00,16:00,MITTWOCH,09:00,16:00,DONNERSTAG,09:00,16:00,FREITAG,09:00,16:00
980229,Axel-Springer-Straße / Grashüpfer,52.50781006183241,13.397532102919554,Axel-Springer-Str.,65,10969,Berlin,grashuepfer@familienservice.de,+49-17619945182,https://www.familienservice.de/web/wolkenzwerge-grashupfer,2,40,20,"[""Situationsansatz"", ""Ansatz von Emmi Pikler""]","[""Körper und Bewegung"", ""Interkulturelle Pädagogik"", ""Naturwissenschaftliche Grunderfahrung""]",https://kita-navigator.berlin.de/fallback_einrichtung.jpg,MONTAG,07:30,18:30,DIENSTAG,07:30,18:30,MITTWOCH,07:30,18:30,DONNERSTAG,07:30,18:30,FREITAG,07:30,18:30
29,Kita Villa Murkelmaier,52.507474493510735,13.410447915481326,Sebastianstr.,22,10179,Berlin,villamurkelmaier@gmx.de,+49-30-2792668,,12,90,25,"[""Offene-Arbeit"", ""Situationsansatz""]","[""Körper und Bewegung"", ""Naturwissenschaftliche Grunderfahrung"", ""Integration von Kindern mit Behinderung""]",https://kita-navigator.berlin.de/fallback_einrichtung.jpg,MONTAG,06:30,17:00,DIENSTAG,06:30,17:00,MITTWOCH,06:30,17:00,DONNERSTAG,06:30,17:00,FREITAG,06:30,17:00
101129,Kita Wolkenzwerge,52.50761635703859,13.394452114246263,Markgrafenstr.,20,10969,Berlin,wolkenzwerge@familienservice.de,+49-3025898744,http://www.familienservice.de/web/wolkenzwerge,2,80,35,"[""Ansatz von Emmi Pikler"", ""Tiergestützte Pädagogik""]",[],https://kita-navigator.berlin.de/bilder/einrichtung/101129,MONTAG,07:30,19:30,DIENSTAG,07:30,19:30,MITTWOCH,07:30,19:30,DONNERSTAG,07:30,19:30,FREITAG,07:30,19:30
934,Kita Wilhelmstr. 14a/Kigä City,52.50232816582662,13.38965017388409,Wilhelmstr.,14A,10963,Berlin,Kita.Wilhelmstr14@kindergaertencity.de,+49-30-50586581,http://www.kindergaerten-city.de/wilhelmstr-14-a,2,139,22,"[""Offene-Arbeit""]","[""Integration von Kindern mit Behinderung"", ""Naturwissenschaftliche Grunderfahrung"", ""Körper und Bewegung"", ""Natur- und Umweltpädagogik"", ""Interkulturelle Pädagogik""]",https://kita-navigator.berlin.de/bilder/einrichtung/934,MONTAG,06:00,17:00,DIENSTAG,06:00,17:00,MITTWOCH,06:00,17:00,DONNERSTAG,06:00,17:00,FREITAG,06:00,17:00
30,Kita Pusteblume,52.507782132751984,13.410324826315595,Sebastianstr.,23,10179,Berlin,pusteblume23@gmx.net,+49-30-2792210,http://www.gfj-berlin.de,12,86,25,"[""Situationsansatz"", ""Offene-Arbeit""]","[""Integration von Kindern mit Behinderung"", ""Körper und Bewegung"", ""Ästhetische Bildung (Musik und Kunst)""]",https://kita-navigator.berlin.de/fallback_einrichtung.jpg,MONTAG,06:30,17:00,DIENSTAG,06:30,17:00,MITTWOCH,06:30,17:00,DONNERSTAG,06:30,17:00,FREITAG,06:30,17:00
100064,Kita Trauminsel ,52.50024617926079,13.389676173916675,Wilhelmstr.,3,10963,Berlin,trauminsel.ev@hotmail.de,+49-30-25938954,,24,40,10,"[""Situationsansatz""]","[""Interkulturelle Pädagogik""]",https://kita-navigator.berlin.de/fallback_einrichtung.jpg,MONTAG,08:00,17:00,DIENSTAG,08:00,17:00,MITTWOCH,08:00,17:00,DONNERSTAG,08:00,17:00,FREITAG,08:00,17:00
935229,Blücherstraße 25,52.49347944733786,13.400144936054696,Blücherstr.,25,10961,Berlin,cho@jugendwohnen-berlin.de,+49-30-91451312,https://www.jugendwohnen-berlin.de/kindertagesstaetten/stadtteil-kita-bluecherstrasse/,12,80,17,"[""Offene-Arbeit"", ""Early Excellence""]","[""Körper und Bewegung"", ""Natur- und Umweltpädagogik"", ""Integration von Kindern mit Behinderung"", ""Naturwissenschaftliche Grunderfahrung"", ""Ästhetische Bildung (Musik und Kunst)"", ""Interkulturelle Pädagogik"", ""Gesundheit""]",https://kita-navigator.berlin.de/bilder/einrichtung/935229,MONTAG,07:30,17:00,DIENSTAG,07:30,17:00,MITTWOCH,07:30,17:00,DONNERSTAG,07:30,17:00,FREITAG,07:30,17:00
1087,Kita der Kath. Kirchengem. St. Michael,52.50437335860054,13.415198113226412,Dresdener Str.,29,10999,Berlin,kita-st.michael@gmx.de,+49-30-49807597,,14,75,23,"[""Situationsansatz""]","[""Religionspädagogik""]",https://kita-navigator.berlin.de/fallback_einrichtung.jpg,MONTAG,07:00,17:00,DIENSTAG,07:00,17:00,MITTWOCH,07:00,17:00,DONNERSTAG,07:00,17:00,FREITAG,07:00,17:00
2894,Kita Trauminsel,52.50260034647095,13.388641288500516,Wilhelmstr.,15,10963,Berlin,trauminsel.ev@hotmail.de,+49-30-25923697,,24,20,7,"[""Situationsansatz""]","[""Gesundheit"", ""Interkulturelle Pädagogik""]",https://kita-navigator.berlin.de/fallback_einrichtung.jpg,MONTAG,08:00,17:00,DIENSTAG,08:00,17:00,MITTWOCH,08:00,17:00,DONNERSTAG,08:00,17:00,FREITAG,08:00,17:00
2424,AWO Kita Löwenzahn,52.49268330416013,13.40257486553179,Baerwaldstr.,56,10961,Berlin,loewenzahn@awo-mitte.de,+49-30-2512026,,12,95,30,"[""Situationsansatz"", ""Gesundheit, Natur-und Umweltpädagogik""]","[""Natur- und Umweltpädagogik"", ""Gesundheit"", ""Integration von Kindern mit Behinderung"", ""Naturwissenschaftliche Grunderfahrung""]",https://kita-navigator.berlin.de/bilder/einrichtung/2424,MONTAG,07:00,17:00,DIENSTAG,07:00,17:00,MITTWOCH,07:00,17:00,DONNERSTAG,07:00,17:00,FREITAG,07:00,17:00
377,Kita Planufer 77/Kigä City,52.49453982329705,13.41144478608495,Planufer,77,10967,Berlin,Kita.Planufer77@kindergaertencity.de,+49-30-50586341,http://www.kindergaerten-city.de/planufer-77,18,50,20,"[""Offene-Arbeit"", ""Situationsansatz""]","[""Naturwissenschaftliche Grunderfahrung"", ""Gesundheit"", ""Körper und Bewegung"", ""Natur- und Umweltpädagogik"", ""Ästhetische Bildung (Musik und Kunst)""]",https://kita-navigator.berlin.de/bilder/einrichtung/377,MONTAG,07:30,17:00,DIENSTAG,07:30,17:00,MITTWOCH,07:30,17:00,DONNERSTAG,07:30,17:00,FREITAG,07:30,16:00
2396,INA.KINDER.Garten,52.50036958753495,13.417142468102785,Dresdener Str.,128,10999,Berlin,dresdenerstrasse@inakindergarten.de,+49-30-69503790,http://www.inakindergarten.de,3,78,20,"[""Situationsansatz""]","[""Gesundheit"", ""Interkulturelle Pädagogik""]",https://kita-navigator.berlin.de/bilder/einrichtung/2396,MONTAG,07:30,17:00,DIENSTAG,07:30,17:00,MITTWOCH,07:30,17:00,DONNERSTAG,07:30,17:00,FREITAG,07:30,17:00
385,Kita KOTTI,52.50087238832299,13.417224589850312,Dresdener Str.,14,10999,Berlin,kita.dresdener@kottiberlin.de,+49-30-6153200,http://www.kotti-berlin.de,12,38,11,"[""EEC (Early Excellence)""]","[""Sprache""]",https://kita-navigator.berlin.de/fallback_einrichtung.jpg,MONTAG,07:00,17:00,DIENSTAG,07:00,17:00,MITTWOCH,07:00,17:00,DONNERSTAG,07:00,17:00,FREITAG,07:00,17:00
737,EKT Minifee,52.49411973207805,13.411094606377407,Dieffenbachstr.,76,10967,Berlin,minifee.v@web.de,+49-30-61620677,,18,16,7,"[""Offene-Arbeit"", ""Montessori-Pädagogik"", ""Ansatz von Emmi Pikler"", ""Hengstenberg,  Malspiel nach Arno Stern""]","[""Körper und Bewegung"", ""Integration von Kindern mit Behinderung"", ""Ästhetische Bildung (Musik und Kunst)""]",https://kita-navigator.berlin.de/fallback_einrichtung.jpg,MONTAG,08:00,16:00,DIENSTAG,08:00,16:00,MITTWOCH,08:00,16:00,DONNERSTAG,08:00,16:00,FREITAG,08:00,16:00
814,Kita Spielhaus/Nachbarschaftshaus Urbanstr.,52.49296888646404,13.407618493095729,Urbanstr.,21,10961,Berlin,spielhaus@nachbarschaftshaus.de,+49-30-690497-14,,12,30,15,"[""gewaltfreie Kommunikation""]","[""Ästhetische Bildung (Musik und Kunst)""]",https://kita-navigator.berlin.de/fallback_einrichtung.jpg,MONTAG,08:00,17:00,DIENSTAG,08:00,17:00,MITTWOCH,08:00,17:00,DONNERSTAG,08:00,17:00,FREITAG,08:00,16:00
554,EKT Guten Tag Kinder,52.49324998170518,13.395947724159853,Fürbringerstr.,27,10961,Berlin,vorstand@gutentagkinder.de,+49-30-6913932,,24,14,0,"[""Situationsansatz""]","[""Körper und Bewegung"", ""Ästhetische Bildung (Musik und Kunst)""]",https://kita-navigator.berlin.de/bilder/einrichtung/554,MONTAG,08:30,16:30,DIENSTAG,08:30,16:30,MITTWOCH,08:30,16:30,DONNERSTAG,08:30,16:30,FREITAG,08:30,16:30
2406,Kita Planufer 81/Kigä City,52.4946989779101,13.41265140255802,Planufer,81,10967,Berlin,Kita.planufer81@kindergaertencity.de,+49-30-50586501,http://www.kindergaerten-city.de/planufer-81,2,126,28,"[""Situationsansatz"", ""Offene-Arbeit""]","[""Natur- und Umweltpädagogik""]",https://kita-navigator.berlin.de/bilder/einrichtung/2406,MONTAG,06:00,17:00,DIENSTAG,06:00,17:00,MITTWOCH,06:00,17:00,DONNERSTAG,06:00,17:00,FREITAG,06:00,16:00
600,Kita Leuschnerdamm 33,52.50341184402548,13.417252705176448,Leuschnerdamm,33,10999,Berlin,Kita.Leuschnerdamm33@kindergaertencity.de,+49-30-50586290,http://www.kindergaerten-city.de/leuschnerdamm-33,12,117,33,"[""Situationsansatz"", ""Offene-Arbeit""]","[""Naturwissenschaftliche Grunderfahrung"", ""Körper und Bewegung""]",https://kita-navigator.berlin.de/bilder/einrichtung/600,MONTAG,07:00,17:00,DIENSTAG,07:00,17:00,MITTWOCH,07:00,17:00,DONNERSTAG,07:00,17:00,FREITAG,07:00,16:00
259129,Kita Bienchen,52.502689904791325,13.38755951221371,Hedemannstr.,7,10963,Berlin,kita.bienchen@googlemail.com,+49-3066774910,http://bilingua.org/kita-bienchen-1,18,24,12,"[""bilingual (deutsch-russisch)""]","[""Interkulturelle Pädagogik"", ""bilingual (deutsch-russisch)""]",https://kita-navigator.berlin.de/bilder/einrichtung/259129,MONTAG,08:00,17:00,DIENSTAG,08:00,17:00,MITTWOCH,08:00,17:00,DONNERSTAG,08:00,17:00,FREITAG,08:00,17:00
2519,Kita Umka,52.510196736050545,13.397630949267896,Leipziger Str.,47,10117,Berlin,umka@mitra-ev.de,+49-176-83176995,http://www.mitra-kindergarten.de,24,64,20,"[""bilingual (deutsch-russisch)""]","[""Naturwissenschaftliche Grunderfahrung"", ""Theaterpädagogik"", ""Körper und Bewegung"", ""Natur- und Umweltpädagogik"", ""Gesundheit"", ""Ästhetische Bildung (Musik und Kunst)"", ""Interkulturelle Pädagogik"", ""Bilingualität \""Deutsch-Russisch\""""]",https://kita-navigator.berlin.de/fallback_einrichtung.jpg,MONTAG,07:30,18:00,DIENSTAG,07:30,18:00,MITTWOCH,07:30,18:00,DONNERSTAG,07:30,18:00,FREITAG,07:30,18:00
2797,Kita Lingulino,52.494178164381154,13.3931209901641,Solmsstr.,1,10961,Berlin,k.strauch@awo-spree-wuhle.de,+49-30-36447001,,12,131,41,"[""Offene-Arbeit"", ""Situationsansatz""]","[""Integration von Kindern mit Behinderung"", ""Körper und Bewegung"", ""Interkulturelle Pädagogik"", ""Ästhetische Bildung (Musik und Kunst)"", ""Sprachliche Bildung im Alltag""]",https://kita-navigator.berlin.de/fallback_einrichtung.jpg,MONTAG,07:00,17:00,DIENSTAG,07:00,17:00,MITTWOCH,07:00,17:00,DONNERSTAG,07:00,17:00,FREITAG,07:00,17:00
1086,Ev. Kita Melanchthon,52.4947782574821,13.413735689418196,Planufer,84,10967,Berlin,melanchthon-kita@evkvbmn.de,+49-30-6919268,http://evkvbmn.de,12,50,0,"[""Situationsansatz"", ""Altersmischung""]","[""Integration von Kindern mit Behinderung"", ""Religionspädagogik"", ""Projektarbeit""]",https://kita-navigator.berlin.de/fallback_einrichtung.jpg,MONTAG,06:30,17:00,DIENSTAG,06:30,17:00,MITTWOCH,06:30,17:00,DONNERSTAG,06:30,17:00,FREITAG,06:30,16:00
223129,Kita Stresemannstraße,52.5005656110396,13.386856407563734,Stresemannstr.,35,10963,Berlin,m-albayrak@web.de,+49-30-2510107,,36,13,0,"[""Montessori-Pädagogik""]","[""Integration von Kindern mit Behinderung"", ""Interkulturelle Pädagogik""]",https://kita-navigator.berlin.de/fallback_einrichtung.jpg,MONTAG,07:30,16:40,DIENSTAG,07:30,16:30,MITTWOCH,07:30,16:30,DONNERSTAG,07:30,16:40,FREITAG,07:30,16:30
2390,Kita Baerwaldstr. 18/Kigä City,52.49182999513959,13.400973712084804,Baerwaldstr.,18,10961,Berlin,Kita.Baerwaldstr18@kindergaertencity.de,+49-30-32598128,http://www.kindergaerten-city.de/baerwaldstr-18,6,185,50,"[""Offene-Arbeit"", ""Situationsansatz"", ""interkulturelle/vorurteilsbewusste Erziehung""]","[""Theaterpädagogik"", ""Körper und Bewegung"", ""Interkulturelle Pädagogik"", ""Naturwissenschaftliche Grunderfahrung""]",https://kita-navigator.berlin.de/bilder/einrichtung/2390,MONTAG,06:00,18:00,DIENSTAG,06:00,18:00,MITTWOCH,06:00,18:00,DONNERSTAG,06:00,18:00,FREITAG,06:00,18:00
649,EKT Springteufel,52.49239032735713,13.396934997608522,Mittenwalder Str.,47,10961,Berlin,kontakt@springteufel-berlin.de,+49-30-6938943,http://www.springteufel-berlin.de,36,14,0,"[""Situationsansatz""]",[],https://kita-navigator.berlin.de/bilder/einrichtung/649,MONTAG,08:30,17:00,DIENSTAG,08:30,17:00,MITTWOCH,08:30,17:00,DONNERSTAG,08:30,17:00,FREITAG,08:30,17:00
375,Kita Kochstr. 8/Kigä City,52.50558279449096,13.387988495378103,Kochstr.,8,10969,Berlin,kita.kochstr8@kindergaertencity.de,+49-30-34620291,http://www.kindergaerten-city.de/kochstr-8,2,185,50,"[""Offene-Arbeit"", ""Ansatz von Emmi Pikler""]","[""Interkulturelle Pädagogik""]",https://kita-navigator.berlin.de/bilder/einrichtung/375,MONTAG,06:00,17:30,DIENSTAG,06:00,17:30,MITTWOCH,06:00,17:30,DONNERSTAG,06:00,17:30,FREITAG,06:00,17:30
954,Kita Till Eulenspiegel-Kette ,52.495731845202585,13.41558696492681,Admiralstr.,20,10999,Berlin,kinderladen@tek-admiral.de,+49-30-6157697,http://www.tilleulenspiegelkette.de,12,15,5,"[""Situationsansatz""]","[""Interkulturelle Pädagogik""]",https://kita-navigator.berlin.de/bilder/einrichtung/954,MONTAG,07:30,16:30,DIENSTAG,07:30,16:30,MITTWOCH,07:30,16:30,DONNERSTAG,07:30,16:30,FREITAG,07:30,16:30
2941,Musikkindergarten Berlin,52.50998569509939,13.394267019648087,Leipziger Str.,41,10117,Berlin,leitung@musikkinder-berlin.de,+49-30-70084892,http://www.musikkindergarten-berlin.de,12,135,16,"[""Mischung: von allen Ansätzen das beste""]","[""Theaterpädagogik"", ""Körper und Bewegung"", ""Ästhetische Bildung (Musik und Kunst)"", ""Interkulturelle Pädagogik""]",https://kita-navigator.berlin.de/fallback_einrichtung.jpg,MONTAG,07:30,18:00,DIENSTAG,07:30,18:00,MITTWOCH,07:30,18:00,DONNERSTAG,07:30,18:00,FREITAG,07:30,18:00
2397,Kindertagesstätte Fontanepromenade 14,52.492007419242675,13.407528024373848,Fontanepromenade,14,10967,Berlin,kita.fontanepromenade@diakonie-stadtmitte.de,+49-30,http://www.diakonie-stadtmitte.de,12,200,60,"[""Situationsansatz""]","[""Körper und Bewegung""]",https://kita-navigator.berlin.de/bilder/einrichtung/2397,MONTAG,07:00,17:00,DIENSTAG,07:00,17:00,MITTWOCH,07:00,17:00,DONNERSTAG,07:00,17:00,FREITAG,07:00,16:00
299,EKT Optimisten,52.494548617246465,13.414244803620985,Grimmstr.,1A,10967,Berlin,optimisten@posteo.de,+49-1704983820,https://kinderladen-optimisten.de/,12,13,4,"[""Montessori-Pädagogik"", ""Situationsansatz""]","[""Körper und Bewegung"", ""Natur- und Umweltpädagogik"", ""Ästhetische Bildung (Musik und Kunst)"", ""Gesundheit""]",https://kita-navigator.berlin.de/fallback_einrichtung.jpg,MONTAG,08:00,16:00,DIENSTAG,08:00,16:00,MITTWOCH,08:00,16:00,DONNERSTAG,08:00,16:00,FREITAG,08:00,16:00
967,EKT - Nasreddin,52.50034801338413,13.386064380862244,Großbeerenstr.,94,10963,Berlin,m-albayrak@web.de,+49-30-2510107,,12,22,8,"[""Montessori-Pädagogik""]","[""Integration von Kindern mit Behinderung""]",https://kita-navigator.berlin.de/fallback_einrichtung.jpg,MONTAG,07:30,16:45,DIENSTAG,07:30,16:30,MITTWOCH,07:30,16:40,DONNERSTAG,07:30,16:40,FREITAG,07:30,16:30
882229,Kita Blücherstraße 33,52.49130695201764,13.403654359396175,Blücherstr.,33,10961,Berlin,info@ustun-bildungsstaette.de,+49-3055064645,http://www.ustun-bildungsstaette.de,12,28,10,"[""Reggio-Pädagogik"", ""Situationsansatz""]","[""Interkulturelle Pädagogik""]",https://kita-navigator.berlin.de/fallback_einrichtung.jpg,MONTAG,07:00,17:30,DIENSTAG,07:00,17:30,MITTWOCH,07:00,17:30,DONNERSTAG,07:00,17:30,FREITAG,07:00,17:30
938,Kita KOTTI,52.50172530338354,13.419418670068742,Adalbertstr.,88,10997,Berlin,kita.adalbert@kottiberlin.de,+49-30-6155706,http://www.kotti-berlin.de,24,24,0,"[""EEC (Early Excellence)""]","[""Sprache""]",https://kita-navigator.berlin.de/fallback_einrichtung.jpg,MONTAG,07:00,17:00,DIENSTAG,07:00,17:00,MITTWOCH,07:00,17:00,DONNERSTAG,07:00,17:00,FREITAG,07:00,17:00
1516,Kita KOTTI Adalbertstraße 87,52.50186960942672,13.419519573009236,Adalbertstr.,87,10997,Berlin,kita.adalbert@kottiberlin.de,+49-30-6155706,http://www.kotti-berlin.de,12,26,20,"[""EEC (Early Excellence)""]","[""Sprache""]",https://kita-navigator.berlin.de/fallback_einrichtung.jpg,MONTAG,07:00,17:00,DIENSTAG,07:00,17:00,MITTWOCH,07:00,17:00,DONNERSTAG,07:00,17:00,FREITAG,07:00,17:00
411129,Kita im tam.,52.50422101052358,13.38597112480255,Wilhelmstr.,116,10963,Berlin,a.neumann@diakonie-stadtmitte.de,+49-30-23005540,http://www.diakonie-stadtmitte.de,6,115,20,"[""Early Excellence""]","[""Integration von Kindern mit Behinderung"", ""Interkulturelle Pädagogik"", ""Sprachförderung""]",https://kita-navigator.berlin.de/bilder/einrichtung/411129,MONTAG,07:30,17:00,DIENSTAG,07:30,17:00,MITTWOCH,07:30,17:00,DONNERSTAG,07:30,17:00,FREITAG,07:30,17:00
2425,AWO Europakita ,52.49107469072398,13.4059664967716,Blücherstr.,46,10961,Berlin,europakita@awo-mitte.de,+49-30-2513442,,12,82,36,"[""Situationsansatz"", ""bilingual (deutsch-türkisch)""]","[""Integration von Kindern mit Behinderung"", ""Interkulturelle Pädagogik""]",https://kita-navigator.berlin.de/fallback_einrichtung.jpg,MONTAG,07:00,17:00,DIENSTAG,07:00,17:00,MITTWOCH,07:00,17:00,DONNERSTAG,07:00,17:00,FREITAG,07:00,17:00
308179,Kita Fontanepromenade,52.491267283545504,13.408384050699137,Fontanepromenade,10,10967,Berlin,ingridskindergarten@procuratio.de,+49-17643473120,,11,22,0,"[""Lebensansatz""]","[""Gesundheit"", ""Körper und Bewegung""]",https://kita-navigator.berlin.de/fallback_einrichtung.jpg,MONTAG,07:30,16:00,DIENSTAG,07:30,16:00,MITTWOCH,07:30,16:00,DONNERSTAG,07:30,16:00,FREITAG,07:30,16:00
738,EKT Räuberhöhle,52.49511702345959,13.417009990003912,Planufer,92,10967,Berlin,reuberhoehle@web.de,+49-30-6915016,http://www.kita-raeuberhoehle.de/,24,18,3,"[""Situationsansatz""]","[""Naturwissenschaftliche Grunderfahrung"", ""Gesundheit"", ""Körper und Bewegung"", ""Natur- und Umweltpädagogik""]",https://kita-navigator.berlin.de/fallback_einrichtung.jpg,MONTAG,08:00,17:00,DIENSTAG,08:00,17:00,MITTWOCH,08:00,17:00,DONNERSTAG,08:00,17:00,FREITAG,08:00,17:00
13,Kita Jerusalemer Str. 10/12/Kigä City,52.51188320037497,13.396881391576455,Jerusalemer Str.,10,10117,Berlin,Kita.Jerusalemer10@kindergaertencity.de,+49-30-20216803,http://www.kindergaerten-city.de/jerusalemer-str-10-12,2,183,50,"[""Situationsansatz""]","[""Gesundheit"", ""Integration von Kindern mit Behinderung""]",https://kita-navigator.berlin.de/bilder/einrichtung/13,MONTAG,06:00,18:00,DIENSTAG,06:00,18:00,MITTWOCH,06:00,18:00,DONNERSTAG,06:00,18:00,FREITAG,06:00,18:00
522,"FRÖBEL Kindergarten ""Schatzinsel""",52.512301938534904,13.405580025871888,Fischerinsel,8,10179,Berlin,schatzinsel-berlin@froebel-gruppe.de,+49-302013788,https://schatzinsel.froebel.info/,2,234,69,"[""Reggio-Pädagogik""]","[""Naturwissenschaftliche Grunderfahrung"", ""Körper und Bewegung"", ""Digitalisierung""]",https://kita-navigator.berlin.de/bilder/einrichtung/522,MONTAG,06:00,18:00,DIENSTAG,06:00,18:00,MITTWOCH,06:00,18:00,DONNERSTAG,06:00,18:00,FREITAG,06:00,18:00
555229,Kita Bethaniendamm,52.505410383293345,13.420132219291858,Bethaniendamm,63,10999,Berlin,wieser@jugendwohnen-berlin.de,+49-306953999-70,http://www.jugendwohnen-berlin.de/kita-bethaniendamm.0.html,8,120,48,"[""Offene-Arbeit"", ""Early Excellence, Demokratiepädagogik, kulturelle Bildung""]","[""Theaterpädagogik"", ""Naturwissenschaftliche Grunderfahrung"", ""Ästhetische Bildung (Musik und Kunst)"", ""Interkulturelle Pädagogik"", ""Integration von Kindern mit Behinderung"", ""Körper und Bewegung"", ""Natur- und Umweltpädagogik"", ""Gesundheit""]",https://kita-navigator.berlin.de/bilder/einrichtung/555229,MONTAG,07:30,17:00,DIENSTAG,07:30,17:00,MITTWOCH,07:30,17:00,DONNERSTAG,07:30,17:00,FREITAG,07:30,17:00
1602,EKT - Trompete,52.49781653816344,13.384711889829914,Großbeerenstr.,13,10963,Berlin,nathaliekommoss@gmx.de,+49-1577381350,,24,16,4,"[""Montessori-Pädagogik""]","[""Körper und Bewegung"", ""Integration von Kindern mit Behinderung""]",https://kita-navigator.berlin.de/fallback_einrichtung.jpg,MONTAG,08:00,17:00,DIENSTAG,08:00,17:00,MITTWOCH,08:00,17:00,DONNERSTAG,08:00,17:00,FREITAG,08:00,17:00
2539,EKT Bunte Mischung,52.49427643624134,13.41728471287014,Böckhstr.,48,10967,Berlin,ekt.buntemischung@gmail.com,+49-30-74073555,,12,25,10,"[""Situationsansatz""]","[""Körper und Bewegung""]",https://kita-navigator.berlin.de/fallback_einrichtung.jpg,MONTAG,08:00,17:00,DIENSTAG,08:00,17:00,MITTWOCH,08:00,17:00,DONNERSTAG,08:00,17:00,FREITAG,08:00,17:00
2605,Kinderladen Grüffelo,52.490905036617164,13.394484974435642,Zossener Str.,36,10961,Berlin,kinderladen@gmail.com,+49-30-6942457,,24,15,7,"[""Situationsansatz""]",[],https://kita-navigator.berlin.de/fallback_einrichtung.jpg,MONTAG,08:30,16:30,DIENSTAG,08:30,16:30,MITTWOCH,08:30,16:30,DONNERSTAG,08:30,16:30,FREITAG,08:30,16:00
790329,Kita Möckernstraße 139,52.502122673022384,13.383219174957375,Möckernstr.,139,10963,Berlin,moeckernstrasse@humanistischekitas.de,+49-30-340450860,http://www.humanistischekitas.de,12,78,0,"[""Offene-Arbeit"", ""Freinet-Pädagogik""]","[""Integration von Kindern mit Behinderung""]",https://kita-navigator.berlin.de/fallback_einrichtung.jpg,MONTAG,06:30,17:30,DIENSTAG,06:30,17:30,MITTWOCH,06:30,17:30,DONNERSTAG,06:30,17:30,FREITAG,06:30,17:30
987,EKT - Mondlicht I,52.49391595106915,13.417490629649405,Böckhstr.,11,10967,Berlin,ifrauenverein@t-online.de,+49-30-6948233,,18,51,0,"[""Situationsansatz"", ""Körper und Bewegung, Ästhetische Bildung (Musik und Kunst)""]","[""Religionspädagogik"", ""Naturwissenschaftliche Grunderfahrung"", ""Ästhetische Bildung (Musik und Kunst)"", ""Gesundheit"", ""Körper und Bewegung""]",https://kita-navigator.berlin.de/fallback_einrichtung.jpg,MONTAG,07:00,16:00,DIENSTAG,07:00,16:00,MITTWOCH,07:00,16:00,DONNERSTAG,07:00,16:00,FREITAG,07:00,16:00
1591,EKT - Knatterpampe,52.49410086580574,13.41787140711972,Böckhstr.,45,10967,Berlin,knatterpampe@gmail.com,+49-30-6925555,,33,17,0,"[""Montessori-Pädagogik""]","[""Körper und Bewegung"", ""Interkulturelle Pädagogik""]",https://kita-navigator.berlin.de/fallback_einrichtung.jpg,MONTAG,08:00,17:00,DIENSTAG,08:00,17:00,MITTWOCH,08:00,17:00,DONNERSTAG,08:00,17:00,FREITAG,08:00,17:00
546379,Kiezpiraten,52.491776739581915,13.41398217478747,Urbanstr.,137,10967,Berlin,kiezpiraten@taeks.de,+49-30-39203828,,8,45,0,"[""Reggio-Pädagogik"", ""Ansatz von Emmi Pikler"", ""Lernwerkstätten, Integration, Projektarbeit, Nachhaltigkeit""]","[""Gesundheit"", ""Interkulturelle Pädagogik"", ""Natur- und Umweltpädagogik"", ""Theaterpädagogik"", ""Sprache""]",https://kita-navigator.berlin.de/bilder/einrichtung/546379,MONTAG,08:00,17:00,DIENSTAG,08:00,17:00,MITTWOCH,08:00,17:00,DONNERSTAG,08:00,17:00,FREITAG,08:00,16:00
1578,EKT - Mondlicht II,52.49385953343795,13.417709195388099,Böckhstr.,12,10967,Berlin,ifrauenverein@t-online.de,+49-30-61625913,,18,15,0,"[""Situationsansatz"", ""Körper und Bewegung, Natur-und Umweltpädagogik, Ästhetische Bildung (Musik und Kunst)""]","[""Religionspädagogik"", ""Körper und Bewegung"", ""Ästhetische Bildung (Musik und Kunst)"", ""Naturwissenschaftliche Grunderfahrung"", ""Gesundheit""]",https://kita-navigator.berlin.de/fallback_einrichtung.jpg,MONTAG,07:00,16:00,DIENSTAG,07:00,16:00,MITTWOCH,07:00,16:00,DONNERSTAG,07:00,16:00,FREITAG,07:00,16:00
2690,EKT - Knatterbande ,52.494699893936726,13.418829506875763,Graefestr.,6,10967,Berlin,info@knatterbande.de,+49-3069817780,http://www.knatterbande.de,18,17,4,"[""Montessori-Pädagogik""]","[""Gesundheit"", ""Körper und Bewegung"", ""Natur- und Umweltpädagogik"", ""Ästhetische Bildung (Musik und Kunst)""]",https://kita-navigator.berlin.de/fallback_einrichtung.jpg,MONTAG,08:00,17:00,DIENSTAG,08:00,17:00,MITTWOCH,08:00,17:00,DONNERSTAG,08:00,17:00,FREITAG,08:00,16:00
1540,Montessori-Kinderhaus Naunynstraße,52.5014642396047,13.422358458195204,Naunynstr.,69,10997,Berlin,kita.naunynstrasse@unionhilfswerk.de,+49-30-6149053,http://www.unionhilfswerk.de,12,63,21,"[""Montessori-Pädagogik""]","[""Integration von Kindern mit Behinderung"", ""Naturwissenschaftliche Grunderfahrung"", ""Gesundheit"", ""Körper und Bewegung"", ""Natur- und Umweltpädagogik"", ""Interkulturelle Pädagogik""]",https://kita-navigator.berlin.de/bilder/einrichtung/1540,MONTAG,06:00,17:00,DIENSTAG,06:00,17:00,MITTWOCH,06:00,17:00,DONNERSTAG,06:00,17:00,FREITAG,06:00,16:30
812,EKT - Kinderhaus Waldemar Elterninitiative,52.50305683413255,13.422311744755412,Waldemarstr.,57,10997,Berlin,kihawal@t-online.de,+49-30-6141029,http://kinderhaus-waldemar.de,12,85,25,"[""Situationsansatz""]","[""Integration von Kindern mit Behinderung"", ""Gesundheit"", ""Theaterpädagogik"", ""Körper und Bewegung""]",https://kita-navigator.berlin.de/bilder/einrichtung/812,MONTAG,08:00,17:00,DIENSTAG,08:00,17:00,MITTWOCH,08:00,17:00,DONNERSTAG,08:00,17:00,FREITAG,08:00,17:00
957,"Eltern-Kinder-Schülergruppe
Modell Florian",52.50305683413255,13.422311744755412,Waldemarstr.,57,10997,Berlin,eksg-modell-florian@gmx.net,+49-30-6148146,,24,34,5,"[""Situationsansatz""]","[""Körper und Bewegung"", ""Gesundheit""]",https://kita-navigator.berlin.de/fallback_einrichtung.jpg,MONTAG,08:00,17:00,DIENSTAG,08:00,17:00,MITTWOCH,08:00,17:00,DONNERSTAG,08:00,17:00,FREITAG,08:00,17:00
904,AWO Kita Wassertropfen,52.50015725666132,13.422517222716374,Oranienstr.,192,10999,Berlin,wassertropfen@awo-mitte.de,+49-30-6144829,,24,54,20,"[""Situationsansatz"", ""Gesundheit""]","[""Körper und Bewegung"", ""Gesundheit"", ""Integration von Kindern mit Behinderung"", ""Elternarbeit""]",https://kita-navigator.berlin.de/bilder/einrichtung/904,MONTAG,07:00,16:30,DIENSTAG,07:00,16:30,MITTWOCH,07:00,16:30,DONNERSTAG,07:00,16:30,FREITAG,07:00,16:00
953,Kita Till Eulenspiegel-Kette ,52.50445390985616,13.422031862053963,Adalbertstr.,23B,10997,Berlin,kinderladen@tek-kreuzberg.de,+49-30-75453164,http://www.tilleulenspiegelkette.de,12,22,7,"[""Situationsansatz""]","[""Körper und Bewegung"", ""Ästhetische Bildung (Musik und Kunst)""]",https://kita-navigator.berlin.de/bilder/einrichtung/953,MONTAG,07:30,16:30,DIENSTAG,07:30,16:30,MITTWOCH,07:30,16:30,DONNERSTAG,07:30,16:30,FREITAG,07:30,16:30
26,Kita Trauminsel,52.50882128805198,13.418763253680122,Schmidstr.,2,10179,Berlin,kita.trauminsel@forum-soziale-dienste.de,+49-30-2794009,http://www.forum-soziale-dienste.de,12,90,21,"[""Offene-Arbeit""]",[],https://kita-navigator.berlin.de/bilder/einrichtung/26,MONTAG,06:30,17:30,DIENSTAG,06:30,17:30,MITTWOCH,06:30,17:30,DONNERSTAG,06:30,17:30,FREITAG,06:30,17:30
932,EKT - Der kleine Horrorladen,52.49414214975378,13.418874559080079,Graefestr.,84,10967,Berlin,horrorladen@gmx.de,+49-30-6929332,,18,25,4,"[""Montessori-Pädagogik""]","[""Körper und Bewegung"", ""Interkulturelle Pädagogik"", ""Gesundheit"", ""Ästhetische Bildung (Musik und Kunst)""]",https://kita-navigator.berlin.de/fallback_einrichtung.jpg,MONTAG,07:30,16:30,DIENSTAG,07:30,16:30,MITTWOCH,07:30,16:30,DONNERSTAG,07:30,16:30,FREITAG,07:30,16:30
1618,EKT Schokokids,52.50131327778853,13.42290456804558,Naunynstr.,72,10997,Berlin,ektschokokids@web.de,+49-30-6157699,,12,23,8,"[""Situationsansatz""]","[""Berliner Bildungsprogramm""]",https://kita-navigator.berlin.de/fallback_einrichtung.jpg,MONTAG,08:00,16:30,DIENSTAG,08:00,16:30,MITTWOCH,08:00,16:30,DONNERSTAG,08:00,16:30,FREITAG,08:00,16:30
2557,Integrationskinderladen Fidicinis,52.49074395745358,13.392223954159043,Solmsstr.,22,10961,Berlin,info@kinderladen-fidicinis.de,+49-176-50468993,http://www.kinderladen-fidicinis.de,18,22,10,"[""Situationsansatz"", ""Ansatz von Emmi Pikler""]",[],https://kita-navigator.berlin.de/bilder/einrichtung/2557,MONTAG,08:00,16:30,DIENSTAG,08:00,16:30,MITTWOCH,08:00,16:30,DONNERSTAG,08:00,16:30,FREITAG,08:00,16:00
2419,Evangelische Kita Arche,52.4901878336003,13.393843854945178,Zossener Str.,22,10961,Berlin,arche-kita@evkvbmn.de,+49-30-6912499,http://evkvbmn.de,0,98,0,"[""Inklusion / Barrierefreiheit""]","[""Religionspädagogik"", ""Integration von Kindern mit Behinderung"", ""Gruppenbezogenes Arbeiten""]",https://kita-navigator.berlin.de/fallback_einrichtung.jpg,MONTAG,06:00,17:00,DIENSTAG,06:00,17:00,MITTWOCH,06:00,17:00,DONNERSTAG,06:00,17:00,FREITAG,06:00,16:30
2902,EKT Löwenherz & Spunk e.V.,52.48897970212805,13.400433451030834,Bergmannstr.,68,10961,Berlin,platzfuerkinder@yahoo.de,+49-30-80206776,,12,25,10,"[""Montessori-Pädagogik"", ""Situationsansatz""]","[""Natur- und Umweltpädagogik"", ""Ästhetische Bildung (Musik und Kunst)"", ""Naturwissenschaftliche Grunderfahrung""]",https://kita-navigator.berlin.de/fallback_einrichtung.jpg,MONTAG,08:00,16:00,DIENSTAG,08:00,16:00,MITTWOCH,08:00,16:00,DONNERSTAG,08:00,16:00,FREITAG,08:00,15:00
2431,"Kita Verein zur Förderung eines
freien Erziehungs- und Bildungswesens",52.497083523808264,13.383049026757767,Obentrautstr.,52,10963,Berlin,conny.busche@gmail.com,+49-30-2165016,,24,17,0,[],[],https://kita-navigator.berlin.de/fallback_einrichtung.jpg,MONTAG,08:30,17:00,DIENSTAG,08:30,17:00,MITTWOCH,08:30,17:00,DONNERSTAG,08:30,17:00,FREITAG,08:30,17:00
1128279,Kita Schmidchen,52.50940383318814,13.418824862136312,Schmidstr.,4,10179,Berlin,kita-schmidchen-mitte@volkssolidarität.de,+49-30-40362060,,0,79,0,[],[],https://kita-navigator.berlin.de/fallback_einrichtung.jpg,,,,,,,,,,,,,,,
1151,EKT - Die Panzerknacker,52.4904909525568,13.39153647585113,Riemannstr.,17,10961,Berlin,kila.panzerknacker@googlemail.com,+49-30-6928864,http://www.kinderladen-panzerknacker.de,21,35,0,"[""Offene-Arbeit""]","[""Interkulturelle Pädagogik"", ""Integration von Kindern mit Behinderung"", ""Gesundheit"", ""Körper und Bewegung""]",https://kita-navigator.berlin.de/fallback_einrichtung.jpg,MONTAG,08:00,17:00,DIENSTAG,08:00,17:00,MITTWOCH,08:00,17:00,DONNERSTAG,08:00,17:00,FREITAG,08:00,17:00
1610,EKT - Affentanz,52.50069217509837,13.423592725379208,Mariannenstr.,47,10997,Berlin,ektaffentanz@gmx.de,+49-30-6175234,,11,27,10,"[""Situationsansatz""]","[""Sprache""]",https://kita-navigator.berlin.de/fallback_einrichtung.jpg,MONTAG,08:00,17:00,DIENSTAG,08:00,17:00,MITTWOCH,08:00,17:00,DONNERSTAG,08:00,17:00,FREITAG,08:00,17:00
1611,EKT - Langer Rüssel,52.500815553022484,13.423675235543534,Mariannenstr.,48,10997,Berlin,kinderladen.wolkenburg@yahoo.de,+49-30-6126120,,24,18,0,"[""Offene-Arbeit"", ""Situationsansatz""]","[""Körper und Bewegung"", ""Ästhetische Bildung (Musik und Kunst)""]",https://kita-navigator.berlin.de/fallback_einrichtung.jpg,MONTAG,08:30,16:00,DIENSTAG,08:30,16:00,MITTWOCH,08:30,16:00,DONNERSTAG,08:30,16:00,FREITAG,08:30,16:00
270129,Kita Adalbertstraße 24,52.50565216390316,13.422619580959696,Adalbertstr.,24,10179,Berlin,gapko@gmx.de,+49-3040054204,,12,30,12,"[""Offene-Arbeit""]","[""Körper und Bewegung"", ""Interkulturelle Pädagogik""]",https://kita-navigator.berlin.de/fallback_einrichtung.jpg,MONTAG,07:00,18:00,DIENSTAG,07:00,18:00,MITTWOCH,07:00,18:00,DONNERSTAG,07:00,18:00,FREITAG,07:00,17:00
2889,Frieda Kirschkern,52.492195757598886,13.417475796610834,Dieffenbachstr.,27,10967,Berlin,info@kirschkern-ev.de,+49-30-76580050,,12,25,9,"[""Situationsansatz""]","[""Ästhetische Bildung (Musik und Kunst)""]",https://kita-navigator.berlin.de/fallback_einrichtung.jpg,MONTAG,07:30,16:30,DIENSTAG,07:30,16:30,MITTWOCH,07:30,16:30,DONNERSTAG,07:30,16:30,FREITAG,07:30,16:30
2428,Kita Hasenheide 56,52.489125134721625,13.409418786458325,Hasenheide,56,10967,Berlin,info@kirschkern-ev.de,+49-30-6931995,http://www.kirschkern-eV.de,12,30,9,"[""Situationsansatz""]",[],https://kita-navigator.berlin.de/fallback_einrichtung.jpg,MONTAG,07:30,16:30,DIENSTAG,07:30,16:30,MITTWOCH,07:30,16:30,DONNERSTAG,07:30,16:30,FREITAG,07:30,16:30
956,Eltern-Kind-Gruppe Kreuzberg-Nord,52.503509162646225,13.423869119865818,Mariannenplatz,2A,10997,Berlin,kindergruppe-kreuzberg-nord@email.de,+49-30-6145900,http://www.spielraeumeimbethanien.info,8,54,13,"[""Offene-Arbeit"", ""Situationsansatz""]","[""Interkulturelle Pädagogik"", ""Naturwissenschaftliche Grunderfahrung"", ""Gesundheit"", ""Körper und Bewegung"", ""Natur- und Umweltpädagogik""]",https://kita-navigator.berlin.de/fallback_einrichtung.jpg,MONTAG,08:00,16:30,DIENSTAG,08:00,16:30,MITTWOCH,08:00,16:30,DONNERSTAG,08:00,17:00,FREITAG,08:00,16:30
1581,EKT - Pittiplatsch,52.49333015479814,13.419741850612699,Böckhstr.,21,10967,Berlin,EKT-Pittiplatsch@posteo.de,+49-30-6919580,,18,21,5,"[""Freinet-Pädagogik""]","[""demokratische Bildung""]",https://kita-navigator.berlin.de/fallback_einrichtung.jpg,MONTAG,08:00,17:00,DIENSTAG,08:00,17:00,MITTWOCH,08:00,17:00,DONNERSTAG,08:00,17:00,FREITAG,08:00,16:00
981229,FRÖBEL-Kindergarten,52.509938327109836,13.385698265607992,Leipziger Str.,13,10117,Berlin,bmf@froebel-gruppe.de,+49-3020075362,https://bmf-berlin.froebel.info/,6,20,20,"[""Offene-Arbeit"", ""Krippe""]","[""Körper und Bewegung"", ""Ästhetische Bildung (Musik und Kunst)"", ""Gesundheit""]",https://kita-navigator.berlin.de/fallback_einrichtung.jpg,MONTAG,07:00,17:00,DIENSTAG,07:00,17:00,MITTWOCH,07:00,17:00,DONNERSTAG,07:00,17:00,FREITAG,07:00,17:00
2522,Europa-Kita VAK e.V. Reichenberger Str. 156 A.,52.497732464816075,13.423536554581641,Reichenberger Str.,156,10999,Berlin,VAK-Kitas@t-online.de,+49-3061076668,http://www.vak-kindertagesstaetten.de,18,73,14,"[""vorurteilsbewusste, Interkulturelle Pädagogik""]","[""Körper und Bewegung"", ""Interkulturelle Pädagogik"", ""Gesundheit""]",https://kita-navigator.berlin.de/bilder/einrichtung/2522,MONTAG,06:30,17:00,DIENSTAG,06:30,17:00,MITTWOCH,06:30,17:00,DONNERSTAG,06:30,17:00,FREITAG,06:30,16:00
650,EKT - Kinderladen Luftabong,52.49251254646517,13.386283557848127,Yorckstr.,88H,10965,Berlin,info@kinderladen-luftabong.de,+49-30-7868430,http://www.kinderladen-luftabong.de,30,18,0,"[""Montessori-Pädagogik""]",[],https://kita-navigator.berlin.de/fallback_einrichtung.jpg,MONTAG,08:30,16:00,DIENSTAG,08:30,16:00,MITTWOCH,08:30,16:00,DONNERSTAG,08:30,16:00,FREITAG,08:30,16:00
1002,EKT Herzlichtgarten,52.488980573960625,13.410503637937317,Hasenheide,51,10967,Berlin,herzlichtgarten@yahoo.de,+49-30-6949805,,24,18,5,"[""Montessori-Pädagogik""]","[""Integration von Kindern mit Behinderung"", ""Körper und Bewegung"", ""Natur- und Umweltpädagogik"", ""Interkulturelle Pädagogik"", ""Ästhetische Bildung (Musik und Kunst)""]",https://kita-navigator.berlin.de/fallback_einrichtung.jpg,MONTAG,07:30,17:00,DIENSTAG,07:30,17:00,MITTWOCH,07:30,17:00,DONNERSTAG,07:30,17:00,FREITAG,07:30,17:00
1622,EKT - Kinderladen Bande,52.499744246680336,13.424382419044388,Oranienstr.,202,10999,Berlin,kinderladen-bande@t-online.de,+49-30-6119894,,18,15,0,"[""Situationsansatz""]","[""Natur- und Umweltpädagogik""]",https://kita-navigator.berlin.de/fallback_einrichtung.jpg,MONTAG,08:00,16:00,DIENSTAG,08:00,16:30,MITTWOCH,08:00,16:30,DONNERSTAG,08:00,16:30,FREITAG,08:00,16:00
372129,miKita,52.49522375912282,13.422307865662273,Maybachufer,5,12047,Berlin,info@mi-kita.de,+49-17621454834,http://www.mi-kita.de,15,22,9,"[""Situationsansatz""]","[""Bilingualismus""]",https://kita-navigator.berlin.de/fallback_einrichtung.jpg,MONTAG,08:15,16:15,DIENSTAG,08:15,16:15,MITTWOCH,08:15,16:15,DONNERSTAG,08:15,16:15,FREITAG,08:15,16:15
686229,Alegria Kiga,52.51187397478563,13.388194452735132,Mohrenstr.,11,10117,Berlin,alegria.susanne@gmx.de,+49-3051055655,http://www.kiga-alegria.de,12,48,18,"[""Gestaltpädagogik""]","[""Interkulturelle Pädagogik"", ""Gesundheit"", ""Körper und Bewegung"", ""Ästhetische Bildung (Musik und Kunst)""]",https://kita-navigator.berlin.de/fallback_einrichtung.jpg,MONTAG,07:30,18:30,DIENSTAG,07:30,18:30,MITTWOCH,07:30,18:30,DONNERSTAG,07:30,18:30,FREITAG,07:30,18:30
1631,EKT - Klara Kirschkern e.V.,52.490063309344116,13.390040845407707,Nostitzstr.,25,10961,Berlin,info@kirschkern-ev.de,+49-30-6943390,http://www.kirschkern-eV.de,12,18,5,"[""Situationsansatz""]",[],https://kita-navigator.berlin.de/fallback_einrichtung.jpg,MONTAG,07:30,16:30,DIENSTAG,07:30,16:30,MITTWOCH,07:30,16:30,DONNERSTAG,07:30,16:30,FREITAG,07:30,16:30
2558,EKT Girotondo,52.48967366161252,13.390875496863956,Bergmannstr.,98,10961,Berlin,ekt-girotondo@gmx.de,+49-30-69815328,http://www.girotondo-berlin.de,12,30,11,"[""Reggio-Pädagogik"", ""Ansatz von Emmi Pikler""]","[""Interkulturelle Pädagogik""]",https://kita-navigator.berlin.de/bilder/einrichtung/2558,MONTAG,08:00,17:00,DIENSTAG,08:00,17:00,MITTWOCH,08:00,17:00,DONNERSTAG,08:00,17:00,FREITAG,08:00,16:30
2569,Kindergarten Alegria Jardin infantil,52.51181943449905,13.387293090563803,Mohrenstr.,7,10117,Berlin,alegria.susanne@gmx.de,+49-3051055655,http://www.kiga-alegria.de,12,100,33,"[""Gestaltpädagogik""]","[""Ästhetische Bildung (Musik und Kunst)"", ""Interkulturelle Pädagogik"", ""Gesundheit"", ""Körper und Bewegung""]",https://kita-navigator.berlin.de/fallback_einrichtung.jpg,MONTAG,07:30,18:30,DIENSTAG,07:30,18:30,MITTWOCH,07:30,18:30,DONNERSTAG,07:30,18:30,FREITAG,07:30,18:30
1013,Kita Tausend Fühler /Nachbarschaftshs Urbanstr.,52.488465191596916,13.39424538587956,Friesenstr.,4,10965,Berlin,tausendf@nachbarschaftshaus.de,+49-30-6946890,,12,20,10,[],"[""Integration von Kindern mit Behinderung""]",https://kita-navigator.berlin.de/fallback_einrichtung.jpg,MONTAG,07:30,16:30,DIENSTAG,07:30,16:30,MITTWOCH,07:30,16:30,DONNERSTAG,07:30,15:30,FREITAG,07:30,16:30
903,EKT - Veda-Lila Kindergarten,52.488026444030254,13.396036176588606,Arndtstr.,42,10965,Berlin,AntjeGubernus@gmx.de,+49-30-6947166,http://veda-lila-kita.de,12,15,7,"[""Situationsansatz""]","[""Naturwissenschaftliche Grunderfahrung""]",https://kita-navigator.berlin.de/fallback_einrichtung.jpg,MONTAG,07:30,16:30,DIENSTAG,07:30,16:30,MITTWOCH,07:30,16:30,DONNERSTAG,07:30,16:30,FREITAG,07:30,15:30
336,EKT - Tigerente,52.48938698212388,13.390753399594516,Bergmannstr.,12,10961,Berlin,vorstand@kinderladen-tigerente.de,+49-30-6930468,http://www.kinderladen-tigerente.de,30,16,4,"[""Montessori-Pädagogik""]","[""Körper und Bewegung"", ""Natur- und Umweltpädagogik""]",https://kita-navigator.berlin.de/fallback_einrichtung.jpg,MONTAG,08:00,16:00,DIENSTAG,08:00,16:00,MITTWOCH,08:00,16:00,DONNERSTAG,08:00,16:00,FREITAG,08:00,16:00
740,Europa-Kita VAK e.V. Oranienstr. 4,52.499710300934865,13.425411965107939,Oranienstr.,4,10997,Berlin,VAK-Kitas@t-online.de,+49-306186319,http://www.vak-kindertagesstaetten.de,18,83,22,"[""Situationsansatz"", ""vorurteilsbewusste, Interkulturelle Pädagogik""]","[""Körper und Bewegung"", ""Interkulturelle Pädagogik"", ""Gesundheit"", ""Bilingualität""]",https://kita-navigator.berlin.de/bilder/einrichtung/740,MONTAG,06:30,17:00,DIENSTAG,06:30,17:00,MITTWOCH,06:30,17:00,DONNERSTAG,06:30,17:00,FREITAG,06:30,16:00
2413,Kita Sonnenschein,52.49567896953198,13.38126357039148,Wartenburgstr.,6,10963,Berlin,a.boehmke@awo-spree-wuhle.de,+49-30-50587801,http://awo-spree-wuhle.de,12,156,46,"[""Offene-Arbeit"", ""Situationsansatz""]","[""Integration von Kindern mit Behinderung"", ""Theaterpädagogik"", ""Naturwissenschaftliche Grunderfahrung"", ""Natur- und Umweltpädagogik"", ""Interkulturelle Pädagogik""]",https://kita-navigator.berlin.de/bilder/einrichtung/2413,MONTAG,07:00,17:00,DIENSTAG,07:00,17:00,MITTWOCH,07:00,17:00,DONNERSTAG,07:00,17:00,FREITAG,07:00,17:00
381,EKT - Alles Banane,52.48939897271404,13.41474821475258,Graefestr.,39,10967,Berlin,allesbanane.ev@googlemail.com,+49-30-6941812,,12,18,6,"[""Montessori-Pädagogik"", ""frei und u.a. Montessori angelehnt""]",[],https://kita-navigator.berlin.de/fallback_einrichtung.jpg,MONTAG,08:00,16:30,DIENSTAG,08:00,16:30,MITTWOCH,08:00,16:30,DONNERSTAG,08:00,16:30,FREITAG,08:00,16:30
907,EKT - Krötenpfuhl,52.487605303012835,13.396606766680483,Heimstr.,7,10965,Berlin,kroetenpfuhl@web.de,+49-306911656,http://www.krötenpfuhl.de,24,18,0,"[""Situationsansatz""]","[""Gesundheit"", ""Körper und Bewegung"", ""Natur- und Umweltpädagogik""]",https://kita-navigator.berlin.de/fallback_einrichtung.jpg,,,,,,,,,,,,,,,
378,Kita Reichenberger Str. 40/Kigä City,52.49689934145305,13.42491282788016,Reichenberger Str.,40,10999,Berlin,Kita.Reichenberger40@kindergaertencity.de,+49-30-23889682,http://www.kindergaerten-city.de/reichenberger-str-40,12,99,50,"[""Offene-Arbeit"", ""Situationsansatz""]","[""Integration von Kindern mit Behinderung"", ""Interkulturelle Pädagogik""]",https://kita-navigator.berlin.de/bilder/einrichtung/378,MONTAG,07:30,17:00,DIENSTAG,07:30,17:00,MITTWOCH,07:30,17:00,DONNERSTAG,07:30,17:00,FREITAG,07:30,16:30
1616,EKT Muskauer Str. 30,52.503189605761335,13.426002206967512,Muskauer Str.,30,10997,Berlin,KiLaMauertiger@t-online.de,+49-30-6116027,,12,14,3,"[""Situationsansatz"", ""Montessori-Pädagogik"", ""Von Allem etwas""]","[""Integration von Kindern mit Behinderung"", ""Naturwissenschaftliche Grunderfahrung"", ""Gesundheit"", ""Körper und Bewegung"", ""Natur- und Umweltpädagogik"", ""Interkulturelle Pädagogik""]",https://kita-navigator.berlin.de/fallback_einrichtung.jpg,MONTAG,08:00,17:30,DIENSTAG,08:00,17:30,MITTWOCH,08:00,17:30,DONNERSTAG,08:00,17:30,FREITAG,08:00,17:30
2420,Ev. Kita Jesus Christus,52.495740082375136,13.380801708845782,Wartenburgstr.,7,10963,Berlin,jesus-christus-kita@evkvbmn.de,+49-30-2163087,http://evkvbmn.de,12,65,0,"[""Situationsansatz"", ""Teiloffene Arbeit""]","[""Integration von Kindern mit Behinderung"", ""Religionspädagogik"", ""Ästhetische Bildung (Musik und Kunst)""]",https://kita-navigator.berlin.de/fallback_einrichtung.jpg,MONTAG,07:30,17:00,DIENSTAG,07:30,17:00,MITTWOCH,07:30,17:00,DONNERSTAG,07:30,17:00,FREITAG,07:30,17:00
1608,Kita Kinder Werk Stadt,52.48879491510617,13.413819922530346,Fichtestr.,19A,10967,Berlin,info@kinderwerkstadt.net,+49-30-61671911,http://www.kinderwerkstadt.net,24,17,3,"[""Situationsansatz""]",[],https://kita-navigator.berlin.de/bilder/einrichtung/1608,MONTAG,08:00,17:00,DIENSTAG,08:00,17:00,MITTWOCH,08:00,17:00,DONNERSTAG,08:00,17:00,FREITAG,08:00,17:00
525229,Kita Zwergenburg,52.48969003973548,13.3887759782911,Bergmannstr.,5,10961,Berlin,fino-fleur@web.de,+49-30-6926284,http://www.finofleur-kinderladen.de,12,18,3,"[""Situationsansatz""]","[""Gesundheit"", ""Körper und Bewegung"", ""Natur- und Umweltpädagogik"", ""Interkulturelle Pädagogik""]",https://kita-navigator.berlin.de/fallback_einrichtung.jpg,MONTAG,08:00,17:00,DIENSTAG,08:00,17:00,MITTWOCH,08:00,17:00,DONNERSTAG,08:00,17:00,FREITAG,08:00,17:00
1149,Kita Traumbaum,52.50377145292128,13.37906556579223,Dessauer Str.,27,10963,Berlin,traumbaum@ortefuerkinder.de,+49-30-26397930,http://www.ortefuerkinder.de/unsere-kitas/traumbaum/,12,111,26,"[""vielfältiges Lernen, Stärkung der Kompetenzen und des Selbstwertgefühls""]","[""Sprachentwicklung, Alltagsintegrierte Sprachförderung""]",https://kita-navigator.berlin.de/bilder/einrichtung/1149,MONTAG,07:00,17:00,DIENSTAG,07:00,17:00,MITTWOCH,07:00,17:00,DONNERSTAG,07:00,17:00,FREITAG,07:00,16:30
1069379,Löffelohr,52.4882036265747,13.412101735854714,Hasenheide,74,10967,Berlin,info.loeffelohr@gmail.com,+49-30-42086699,http://Loftschloss.com,12,25,10,"[""Ansatz von Emmi Pikler""]","[""Naturwissenschaftliche Grunderfahrung"", ""Gesundheit"", ""Körper und Bewegung"", ""Natur- und Umweltpädagogik"", ""Ästhetische Bildung (Musik und Kunst)""]",https://kita-navigator.berlin.de/fallback_einrichtung.jpg,MONTAG,07:30,17:00,DIENSTAG,07:30,17:00,MITTWOCH,07:30,17:00,DONNERSTAG,07:30,17:00,FREITAG,07:30,17:00
545279,EKT MiniMonster,52.49654884453698,13.380047198947308,Möckernstr.,113,10963,Berlin,traeger@ekt-kruemelmonster.de,+49-30-22022455,http://www.ekt-kruemelmonster.de,12,23,15,"[""Situationsansatz""]","[""Gesundheit"", ""Körper und Bewegung""]",https://kita-navigator.berlin.de/fallback_einrichtung.jpg,MONTAG,08:00,16:00,DIENSTAG,08:00,16:00,MITTWOCH,08:00,16:00,DONNERSTAG,08:00,16:00,FREITAG,08:00,16:00
243,"EKT - ""Wildblume"" e.V.",52.48731900243373,13.396976554522436,Heimstr.,16,10965,Berlin,kila-wildblume@gmx.de,+49-30-69564451,http://www.kila-wildblume.de,18,15,4,"[""Montessori-Pädagogik"", ""Situationsansatz"", ""Ansatz von Emmi Pikler"", ""Integration von Kindern mit Behinderung""]","[""Ästhetische Bildung (Musik und Kunst)"", ""Integration von Kindern mit Behinderung"", ""Theaterpädagogik"", ""Naturwissenschaftliche Grunderfahrung"", ""Körper und Bewegung"", ""Interkulturelle Pädagogik""]",https://kita-navigator.berlin.de/fallback_einrichtung.jpg,MONTAG,07:00,16:00,DIENSTAG,07:00,16:00,MITTWOCH,07:00,16:00,DONNERSTAG,07:00,16:00,FREITAG,07:00,16:00
2491,EKT - Kulturschlüssel ,52.492168170329656,13.384108745850341,Großbeerenstr.,56C,10965,Berlin,info@kulturschluessel.de,+49-30-78896675,,24,23,5,"[""Situationsansatz""]","[""Integration von Kindern mit Behinderung"", ""Körper und Bewegung"", ""Natur- und Umweltpädagogik"", ""Interkulturelle Pädagogik""]",https://kita-navigator.berlin.de/fallback_einrichtung.jpg,MONTAG,08:00,16:30,DIENSTAG,08:00,16:30,MITTWOCH,08:00,16:30,DONNERSTAG,08:00,16:30,FREITAG,08:00,16:00
2620,Kita Sonnenblümchen,52.488736675020185,13.414237373304822,Graefestr.,43,10967,Berlin,KitaSonnenbluemchen@gmx.de,+49-30-25942790,,18,42,6,"[""Situationsansatz""]","[""Religionspädagogik""]",https://kita-navigator.berlin.de/fallback_einrichtung.jpg,MONTAG,07:30,16:00,DIENSTAG,07:30,16:00,MITTWOCH,07:30,16:00,DONNERSTAG,07:30,16:00,FREITAG,07:30,14:00
600229,Kita Kinderbunt Maybachufer,52.49472461617211,13.423848908204084,Maybachufer,11,12047,Berlin,kinderbunt@hotmail.de,+49-3068328297,,12,20,8,"[""Situationsansatz""]","[""Interkulturelle Pädagogik""]",https://kita-navigator.berlin.de/fallback_einrichtung.jpg,MONTAG,08:00,16:00,DIENSTAG,08:00,16:00,MITTWOCH,08:00,16:00,DONNERSTAG,08:00,16:00,FREITAG,08:00,16:00
100044,EKT Krümelmonster e.V.,52.4897797391871,13.387968479689963,Bergmannstr.,3,10961,Berlin,traeger@ekt-kruemelmonster.de,+49-30-69209717,http://www.ekt-kruemelmonster.de,12,18,12,"[""Situationsansatz""]","[""Gesundheit"", ""Körper und Bewegung""]",https://kita-navigator.berlin.de/fallback_einrichtung.jpg,MONTAG,08:00,16:00,DIENSTAG,08:00,16:00,MITTWOCH,08:00,16:00,DONNERSTAG,08:00,16:00,FREITAG,08:00,16:00
865,EKT - Zippel und Zappel,52.48717028315893,13.396949559966657,Heimstr.,15,10965,Berlin,sarastrauch77@gmail.com,+49-30-6945500,,20,16,1,"[""Situationsansatz""]","[""Naturwissenschaftliche Grunderfahrung"", ""Gesundheit"", ""Körper und Bewegung"", ""Natur- und Umweltpädagogik"", ""Ästhetische Bildung (Musik und Kunst)""]",https://kita-navigator.berlin.de/fallback_einrichtung.jpg,MONTAG,08:00,16:00,DIENSTAG,08:00,16:00,MITTWOCH,08:00,16:00,DONNERSTAG,08:00,16:00,FREITAG,08:00,16:00
1613,EKT - Zinnober,52.49125271830511,13.385085014584288,Hagelberger Str.,52,10965,Berlin,mail@kita-zinnober.de,+49-30-7859265,,12,47,12,"[""Situationsansatz""]","[""Ästhetische Bildung (Musik und Kunst)""]",https://kita-navigator.berlin.de/fallback_einrichtung.jpg,MONTAG,08:00,17:00,DIENSTAG,08:00,17:00,MITTWOCH,08:00,17:00,DONNERSTAG,08:00,17:00,FREITAG,08:00,17:00
297,Kinderladen Muko,52.50299203521554,13.426628078464098,Muskauer Str.,33,10997,Berlin,kilamuko@icloud.com,+49-30-6186824,,12,18,5,"[""Situationsansatz""]","[""Körper und Bewegung"", ""Integration von Kindern mit Behinderung"", ""Ästhetische Bildung (Musik und Kunst)""]",https://kita-navigator.berlin.de/fallback_einrichtung.jpg,MONTAG,08:00,16:00,DIENSTAG,08:00,16:00,MITTWOCH,08:00,16:00,DONNERSTAG,08:00,16:00,FREITAG,08:00,16:00
1633,Kita Willibald-Alexis-Straße,52.48712711474348,13.396285406121923,Willibald-Alexis-Str.,43,10965,Berlin,info@kinderladen-combo.de,+49-30-6928882,https://kinderladen-combo.de,18,23,6,"[""Offene-Arbeit"", ""Situationsansatz""]",[],https://kita-navigator.berlin.de/fallback_einrichtung.jpg,MONTAG,08:00,16:30,DIENSTAG,08:00,16:30,MITTWOCH,08:00,16:30,DONNERSTAG,08:00,16:30,FREITAG,08:00,16:00
221129,Kita Kunterbunt 2,52.49892613326999,13.426752633127121,Wiener Str.,1,10999,Berlin,eebevberlin@gmail.com,+49-3069516797,,24,30,10,"[""Situationsansatz""]","[""Sprachförderung""]",https://kita-navigator.berlin.de/fallback_einrichtung.jpg,MONTAG,08:00,17:00,DIENSTAG,08:00,17:00,MITTWOCH,08:00,17:00,DONNERSTAG,08:00,17:00,FREITAG,08:00,17:00
380229,Kita EMMA APFEL,52.49462461977619,13.380169488062675,Hornstr.,13,10963,Berlin,post@EMMAAPFEL.de,+49-30-54849986,http://www.EMMAAPFEL.de,12,50,20,"[""Montessori-Pädagogik""]",[],https://kita-navigator.berlin.de/bilder/einrichtung/380229,MONTAG,07:00,16:00,DIENSTAG,07:00,16:00,MITTWOCH,07:00,16:00,DONNERSTAG,07:00,16:00,FREITAG,07:00,16:00
100076,Kita im BMFSFJ,52.513240408455665,13.386595570885294,Glinkastr.,24,10117,Berlin,in-house@kinder-im-kiez.de,+49-3032514485,http://www.kinder-im-kiez.de,2,14,14,"[""Situationsansatz""]","[""frühkindliche Bildung""]",https://kita-navigator.berlin.de/fallback_einrichtung.jpg,MONTAG,08:00,18:00,DIENSTAG,08:00,18:00,MITTWOCH,08:00,18:00,DONNERSTAG,08:00,18:00,FREITAG,08:00,18:00
353129,Kila Spreepferdchen,52.50905732686942,13.424392654218607,Köpenicker Str.,45,10179,Berlin,mail@kilaspreepferdchen.de,+49-30-24088849,http://www.kila.spreepferdchen.de,9,22,10,"[""Offene-Arbeit"", ""Fröbel-Pädagogik"", ""Situationsansatz"", ""Montessori-Pädagogik"", ""Ansatz von Emmi Pikler""]","[""Gesundheit"", ""Körper und Bewegung"", ""Yoga, Koordinationstraining""]",https://kita-navigator.berlin.de/fallback_einrichtung.jpg,MONTAG,07:00,17:00,DIENSTAG,07:00,17:00,MITTWOCH,07:00,17:00,DONNERSTAG,07:00,17:00,FREITAG,07:00,17:00
2600,EKT Fino und Fleur ,52.486574836798965,13.395672183901283,Jüterboger Str.,8,10965,Berlin,fino-fleur@web.de,+49-30-6926284,http://www.fino-fleur-kinderladen.de,12,17,6,"[""Situationsansatz""]","[""Natur- und Umweltpädagogik"", ""Gesundheit"", ""Körper und Bewegung"", ""Religionspädagogik""]",https://kita-navigator.berlin.de/fallback_einrichtung.jpg,MONTAG,08:00,17:00,DIENSTAG,08:00,17:00,MITTWOCH,08:00,17:00,DONNERSTAG,08:00,17:00,FREITAG,08:00,17:00
1584,EKT - Mondsichel,52.490869503726664,13.42137373295901,Boppstr.,4,10967,Berlin,ifrauenverein@t-online.de,+49-30,,24,36,0,"[""Situationsansatz"", ""Körper und Bewegung, Natur-und Umweltpädagogik, bilingual (deutsch-türkisch)""]","[""Naturwissenschaftliche Grunderfahrung"", ""Religionspädagogik"", ""Körper und Bewegung"", ""Ästhetische Bildung (Musik und Kunst)""]",https://kita-navigator.berlin.de/fallback_einrichtung.jpg,MONTAG,07:00,16:00,DIENSTAG,07:00,16:00,MITTWOCH,07:00,16:00,DONNERSTAG,07:00,16:00,FREITAG,07:00,16:00
2410,Kita Urbanstr. 48k/Kigä City,52.48887394630659,13.417908780212631,Urbanstr.,48K,10967,Berlin,Kita.Urbanstr48k@kindergaertencity.de,+49-30-50586560,http://www.kindergaerten-city.de/urbanstr-48-k,12,136,51,"[""Offene-Arbeit"", ""Situationsansatz""]","[""Integration von Kindern mit Behinderung"", ""Gesundheit"", ""Körper und Bewegung"", ""Interkulturelle Pädagogik""]",https://kita-navigator.berlin.de/bilder/einrichtung/2410,MONTAG,06:00,17:00,DIENSTAG,06:00,17:00,MITTWOCH,06:00,17:00,DONNERSTAG,06:00,17:00,FREITAG,06:00,16:00
8,Kita Französische Str. 16a u. 16b,52.51452364063724,13.387995789939193,Französische Str.,16,10117,Berlin,franzoesischestrasse@kinder-im-kiez.de,+49-30-2089214,http://www.kinder-im-kiez.de/unsere-kitas/franzoesische-strasse/,2,140,50,"[""Situationsansatz""]",[],https://kita-navigator.berlin.de/bilder/einrichtung/8,MONTAG,07:00,18:00,DIENSTAG,07:00,18:00,MITTWOCH,07:00,18:00,DONNERSTAG,07:00,18:00,FREITAG,07:00,18:00
2415,Ev. Kita St. Thomas,52.50583702940242,13.427524004828065,Bethaniendamm,27,10997,Berlin,st.thomas-kita@evkvbmn.de,+49-30-6183730,http://evkvbmn.de,12,40,0,"[""Offene-Arbeit"", ""Altersmischung""]","[""Integration von Kindern mit Behinderung"", ""Religionspädagogik"", ""Sprache""]",https://kita-navigator.berlin.de/fallback_einrichtung.jpg,MONTAG,07:00,17:00,DIENSTAG,07:00,17:00,MITTWOCH,07:00,17:00,DONNERSTAG,07:00,17:00,FREITAG,07:00,17:00
2502,"EKT - ""Wildblume"" e.V.",52.48644857565112,13.393788626722417,Fidicinstr.,23,10965,Berlin,kila-wildblume@gmx.de,+49-30-69564584,http://www.kila-wildblume.de,18,15,6,"[""Situationsansatz"", ""Ansatz von Emmi Pikler"", ""Integration von Kindern mit Behinderung, bilingual (deutsch-englisch)""]","[""Integration von Kindern mit Behinderung"", ""Naturwissenschaftliche Grunderfahrung"", ""Körper und Bewegung"", ""Natur- und Umweltpädagogik"", ""Interkulturelle Pädagogik"", ""Ästhetische Bildung (Musik und Kunst)""]",https://kita-navigator.berlin.de/fallback_einrichtung.jpg,MONTAG,07:00,16:00,DIENSTAG,07:00,16:00,MITTWOCH,07:00,16:00,DONNERSTAG,07:00,16:00,FREITAG,07:00,16:00
296129,Kita im BMAS,52.51254393879298,13.383656016074116,Wilhelmstr.,50,10117,Berlin,in-house@kinder-im-kiez.de,+49-3032514485,http://www.kinder-im-kiez.de,2,16,16,"[""Situationsansatz""]",[],https://kita-navigator.berlin.de/fallback_einrichtung.jpg,MONTAG,08:00,18:00,DIENSTAG,08:00,18:00,MITTWOCH,08:00,18:00,DONNERSTAG,08:00,18:00,FREITAG,08:00,18:00
382,"EKT - Regenbogenfabrik, Block 109",52.495692917756784,13.426953498197841,Lausitzer Str.,22,10999,Berlin,kita@regenbogenfabrik.de,+49-30-69579514,,12,23,8,[],[],https://kita-navigator.berlin.de/fallback_einrichtung.jpg,MONTAG,08:00,17:00,DIENSTAG,08:00,17:00,MITTWOCH,08:00,17:00,DONNERSTAG,08:00,17:00,FREITAG,08:00,17:00
2411,Kita Urbanstr. 62/Kigä City,52.4895727194549,13.420073928623019,Urbanstr.,62,10967,Berlin,Kita.Urbanstr62@kindergaertencity.de,+49-30-81855930,http://www.kindergaerten-city.de/urbanstr-62,8,90,37,"[""Offene-Arbeit""]","[""Gesundheit""]",https://kita-navigator.berlin.de/bilder/einrichtung/2411,MONTAG,07:00,17:00,DIENSTAG,07:00,17:00,MITTWOCH,07:00,17:00,DONNERSTAG,07:00,17:00,FREITAG,07:00,16:00
1620,EKT - Kalle Kirschkern e.V.,52.486923178337086,13.391397126307975,Fidicinstr.,32,10965,Berlin,info@kirschkern-ev.de,+49-30-6937136,http://www.kirschkern-eV.de,12,16,3,"[""Situationsansatz""]",[],https://kita-navigator.berlin.de/fallback_einrichtung.jpg,MONTAG,07:30,16:30,DIENSTAG,07:30,16:30,MITTWOCH,07:30,16:30,DONNERSTAG,07:30,16:30,FREITAG,07:30,16:30
2418,Kita der Ev. Kirchengem. Emmaus-Ölberg,52.49510003705767,13.426790522582717,Lausitzer Str.,29,10999,Berlin,emmaus-kita@evkvbmn.de,+49-30-69818651,http://evkvbmn.de,12,75,0,"[""Situationsansatz""]","[""Natur- und Umweltpädagogik"", ""Integration von Kindern mit Behinderung"", ""Religionspädagogik""]",https://kita-navigator.berlin.de/fallback_einrichtung.jpg,MONTAG,07:00,16:30,DIENSTAG,07:00,16:30,MITTWOCH,07:00,16:30,DONNERSTAG,07:00,16:30,FREITAG,07:00,16:30
2,Kita Kinderwelt,52.511749692772156,13.38211865693978,An der Kolonnade,3,10117,Berlin,kita.kinderwelt@forum-soziale-dienste.de,+49-30-2291378,http://www.forum-soziale-dienste.de,8,130,37,"[""Offene-Arbeit""]","[""Ästhetische Bildung (Musik und Kunst)""]",https://kita-navigator.berlin.de/bilder/einrichtung/2,MONTAG,06:30,18:00,DIENSTAG,06:30,18:00,MITTWOCH,06:30,18:00,DONNERSTAG,06:30,18:00,FREITAG,06:30,18:00
573229,Kita Spreefeld,52.51057686737322,13.42459912900449,Wilhelmine-Gemberg-Weg,10,10179,Berlin,weber@jugendwohnen-berlin.de,+49-3092036752,http://www.jugendwohnen-berlin.de/kita-spreefeld.0.html,12,26,7,"[""Offene-Arbeit"", ""EEC""]","[""Integration von Kindern mit Behinderung"", ""Gesundheit"", ""Körper und Bewegung"", ""Interkulturelle Pädagogik""]",https://kita-navigator.berlin.de/fallback_einrichtung.jpg,MONTAG,07:30,16:30,DIENSTAG,07:30,16:30,MITTWOCH,07:30,16:30,DONNERSTAG,07:30,16:30,FREITAG,07:30,16:30
927,Kinderladen Kreuzbären,52.49057661456801,13.422536069851184,Boppstr.,9,10967,Berlin,b.kruft@web.de,+49-30-6943598,,18,20,10,"[""Situationsansatz""]","[""Körper und Bewegung""]",https://kita-navigator.berlin.de/fallback_einrichtung.jpg,MONTAG,08:00,16:00,DIENSTAG,08:00,16:00,MITTWOCH,08:00,16:00,DONNERSTAG,08:00,16:00,FREITAG,08:00,16:00
247,EKT Wildblume,52.48678812415907,13.390457970609566,Fidicinstr.,10,10965,Berlin,kila-wildblume@gmx.de,+49-30-69503682,http://www.kila-wildblume.de,24,15,5,"[""Situationsansatz"", ""Ansatz von Emmi Pikler"", ""Integration von Kindern mit Behinderung""]","[""Integration von Kindern mit Behinderung"", ""Naturwissenschaftliche Grunderfahrung"", ""Körper und Bewegung"", ""Natur- und Umweltpädagogik"", ""Interkulturelle Pädagogik"", ""Ästhetische Bildung (Musik und Kunst)""]",https://kita-navigator.berlin.de/fallback_einrichtung.jpg,MONTAG,07:00,16:00,DIENSTAG,07:00,16:00,MITTWOCH,07:00,16:00,DONNERSTAG,07:00,16:00,FREITAG,07:00,16:00
1606,Kinder aus Kreuzberg,52.50049891761542,13.429545803348471,Lausitzer Platz,2,10997,Berlin,kinderauskreuzberg@gmx.de,+49-30-81800480,,12,21,9,"[""Situationsansatz""]","[""Integration von Kindern mit Behinderung""]",https://kita-navigator.berlin.de/fallback_einrichtung.jpg,MONTAG,07:30,16:30,DIENSTAG,07:30,16:30,MITTWOCH,07:30,16:30,DONNERSTAG,07:30,16:30,FREITAG,07:30,16:30
1617,EKT - Leierkasten,52.5020056744591,13.429602597761027,Muskauer Str.,43,10997,Berlin,kila.leierkasten@gmail.com,+49-30-6126941,,12,25,6,"[""Offene-Arbeit"", ""interkulturelle Pädagogik, situativer Ansatz""]","[""Integration von Kindern mit Behinderung"", ""Interkulturelle Pädagogik""]",https://kita-navigator.berlin.de/fallback_einrichtung.jpg,MONTAG,08:00,17:00,DIENSTAG,08:00,17:00,MITTWOCH,08:00,17:00,DONNERSTAG,08:00,17:00,FREITAG,08:00,17:00
1029,Kita Schwiebusser Str. 5/Kigä City,52.48601095212555,13.39301220316277,Schwiebusser Str.,5,10965,Berlin,Kita.Schwiebusserstr5@kindergaertencity.de,+49-30-50586541,http://www.kindergaerten-city.de/schwiebusser-str-5,6,90,34,"[""Offene-Arbeit"", ""Situationsansatz""]","[""Integration von Kindern mit Behinderung"", ""Körper und Bewegung""]",https://kita-navigator.berlin.de/bilder/einrichtung/1029,MONTAG,06:00,17:00,DIENSTAG,06:00,17:00,MITTWOCH,06:00,17:00,DONNERSTAG,06:00,17:00,FREITAG,06:00,16:00
1150,EKT - Knulp,52.48849403628077,13.419284830648333,Jahnstr.,7,10967,Berlin,kilaknulp@gmx.de,+49-30-6921323,https://www.knulpies.de/,12,20,3,[],[],https://kita-navigator.berlin.de/fallback_einrichtung.jpg,MONTAG,07:30,16:30,DIENSTAG,07:30,16:30,MITTWOCH,07:30,16:30,DONNERSTAG,07:30,16:30,FREITAG,07:30,16:30
2403,Kita Methfesselstr. 14/Kigä City,52.48875516904852,13.384901083340928,Methfesselstr.,14,10965,Berlin,kita.methfesselstr14@kindergaertencity.de,+49-30-50587271,http://www.kindergaerten-city.de/methfesselstr-14,6,92,33,"[""Situationsansatz"", ""übergreifende Arbeit""]","[""Integration von Kindern mit Behinderung"", ""Naturwissenschaftliche Grunderfahrung"", ""Gesundheit"", ""Körper und Bewegung"", ""Natur- und Umweltpädagogik"", ""Interkulturelle Pädagogik""]",https://kita-navigator.berlin.de/bilder/einrichtung/2403,MONTAG,07:00,17:00,DIENSTAG,07:00,17:00,MITTWOCH,07:00,17:00,DONNERSTAG,07:00,17:00,FREITAG,07:00,16:00
739,EKT - Neumond,52.488524103012004,13.419718252780624,Jahnstr.,14,10967,Berlin,ifrauenverein@t-online.de,+49-30-6917239,,36,30,0,"[""Situationsansatz"", ""Körper und Bewegung, Natur-und Umweltpädagogik, Ästhetische Bildung (Musik und Kunst)""]","[""Religionspädagogik"", ""Naturwissenschaftliche Grunderfahrung"", ""Gesundheit"", ""Körper und Bewegung"", ""Ästhetische Bildung (Musik und Kunst)""]",https://kita-navigator.berlin.de/fallback_einrichtung.jpg,MONTAG,07:00,16:00,DIENSTAG,07:00,16:00,MITTWOCH,07:00,16:00,DONNERSTAG,07:00,16:00,FREITAG,07:00,16:00
282,Kita Blauwal,52.48597169812569,13.392439241271603,Schwiebusser Str.,6,10965,Berlin,blauwal-kita@evkvbmn.de,+49-30-6917231,http://evkvbmn.de,24,36,0,"[""Situationsansatz""]","[""Integration von Kindern mit Behinderung"", ""Religionspädagogik""]",https://kita-navigator.berlin.de/fallback_einrichtung.jpg,MONTAG,07:30,17:00,DIENSTAG,07:30,17:00,MITTWOCH,07:30,17:00,DONNERSTAG,07:30,17:00,FREITAG,07:30,17:00
862229,Kita Piya,52.50189529464279,13.429889410812153,Muskauer Str.,44,10997,Berlin,kita-piya-kreuzberg@yekmal.de,+49-30-69531180,https://yekmal.de,12,45,15,"[""Offene-Arbeit"", ""Early Excellence Ansatz""]","[""Gesundheit"", ""Theaterpädagogik"", ""Tonarbeit, Kinderlabor""]",https://kita-navigator.berlin.de/bilder/einrichtung/862229,MONTAG,08:00,17:00,DIENSTAG,08:00,17:00,MITTWOCH,08:00,17:00,DONNERSTAG,08:00,17:00,FREITAG,08:00,17:00
2822,Kindergarten Alegria,52.511332915136656,13.38004580104489,Voßstr.,12,10117,Berlin,alegria.susanne@gmx.de,+49-3051055655,http://www.kiga-alegria.de,12,45,15,"[""Gestaltpädagogik""]","[""Ästhetische Bildung (Musik und Kunst)"", ""Gesundheit"", ""Körper und Bewegung"", ""Interkulturelle Pädagogik""]",https://kita-navigator.berlin.de/fallback_einrichtung.jpg,MONTAG,07:30,18:30,DIENSTAG,07:30,18:30,MITTWOCH,07:30,18:30,DONNERSTAG,07:30,18:30,FREITAG,07:30,18:30
763229,Jump Bilingual Kindergarten,52.51307329735843,13.381732554871286,Wilhelmstr.,88,10117,Berlin,jump.kita.berlin@gmail.com,+49-30-47051700,http://www.jump-kita.com,9,20,10,"[""Halboffenes Arbeit""]","[""Interkulturelle Pädagogik"", ""Bilingualität""]",https://kita-navigator.berlin.de/fallback_einrichtung.jpg,MONTAG,08:30,17:30,DIENSTAG,08:30,17:30,MITTWOCH,08:30,17:30,DONNERSTAG,08:30,17:30,FREITAG,08:30,17:30
636229,Kita Sternengarten,52.49193133785728,13.42602866624996,Hobrechtstr.,32,12047,Berlin,kitasternengarten@lebenswelt-berlin.org,+49-30-62730190,http://www.lebenswelt-berlin.org,6,90,24,"[""Situationsansatz"", ""interkulturelle Erziehung""]","[""Körper und Bewegung"", ""Natur- und Umweltpädagogik"", ""Gesundheit"", ""Integration von Kindern mit Behinderung"", ""Naturwissenschaftliche Grunderfahrung"", ""Theaterpädagogik"", ""Ästhetische Bildung (Musik und Kunst)"", ""Interkulturelle Pädagogik""]",https://kita-navigator.berlin.de/bilder/einrichtung/636229,MONTAG,06:00,18:00,DIENSTAG,06:00,18:00,MITTWOCH,06:00,18:00,DONNERSTAG,06:00,18:00,FREITAG,06:00,18:00
390229,Kita im BMEL,52.51361517992076,13.38250108842932,Wilhelmstr.,54,10117,Berlin,in-house@kinder-im-kiez.de,+49-3032514485,http://www.kinder-im-kiez.de,2,14,14,"[""Situationsansatz""]","[""frühkindliche Bildung""]",https://kita-navigator.berlin.de/fallback_einrichtung.jpg,MONTAG,08:00,18:00,DIENSTAG,08:00,18:00,MITTWOCH,08:00,18:00,DONNERSTAG,08:00,18:00,FREITAG,08:00,18:00
2934,EKT Bessere Zukunft für Kinder,52.50169234731854,13.43126388442831,Muskauer Str.,11A,10997,Berlin,kinderladen@besserezukunftkinder.de,+49-30,http://www.besserezukunftkinder.de,12,15,5,"[""Situationsansatz""]",[],https://kita-navigator.berlin.de/bilder/einrichtung/2934,MONTAG,08:00,17:00,DIENSTAG,08:00,17:00,MITTWOCH,08:00,17:00,DONNERSTAG,08:00,17:00,FREITAG,08:00,17:00
473279,Kita-kinderbunt,52.49429913843949,13.428767988382292,Ohlauer Str.,44,10999,Berlin,kinderbunt@hotmail.de,+49-30-68328297,,12,20,8,"[""Montessori-Pädagogik"", ""Situationsansatz""]","[""Interkulturelle Pädagogik""]",https://kita-navigator.berlin.de/fallback_einrichtung.jpg,MONTAG,08:00,17:00,DIENSTAG,08:00,17:00,MITTWOCH,08:00,17:00,DONNERSTAG,08:00,17:00,FREITAG,08:00,16:00
762,EKT - Naseweis,52.49291212432862,13.42784376386135,Friedelstr.,35,12047,Berlin,kita-naseweisev@arcor.de,+49-30-6249220,http://ekt-naseweis.de,18,22,0,"[""Situationsansatz""]","[""Körper und Bewegung"", ""Natur- und Umweltpädagogik"", ""Ästhetische Bildung (Musik und Kunst)"", ""Interkulturelle Pädagogik""]",https://kita-navigator.berlin.de/fallback_einrichtung.jpg,MONTAG,07:30,16:30,DIENSTAG,07:30,16:30,MITTWOCH,07:30,16:30,DONNERSTAG,07:30,16:30,FREITAG,07:30,16:00
2576,Kita Kunterbunt 1,52.49548021111081,13.429824822715828,Reichenberger Str.,62,10999,Berlin,eebevberlin@gmail.com,+49-3053097225,,12,30,10,"[""Situationsansatz""]","[""Sprachförderung""]",https://kita-navigator.berlin.de/fallback_einrichtung.jpg,MONTAG,08:00,17:00,DIENSTAG,08:00,17:00,MITTWOCH,08:00,17:00,DONNERSTAG,08:00,17:00,FREITAG,08:00,17:00
933,EKT - Tentakel,52.4944701493136,13.42952641980652,Ohlauer Str.,39,10999,Berlin,info@tentakel.de,+49-30-54594692,http://www.tentakel.de,24,36,0,"[""Situationsansatz""]",[],https://kita-navigator.berlin.de/fallback_einrichtung.jpg,MONTAG,08:00,17:00,DIENSTAG,08:00,17:00,MITTWOCH,08:00,17:00,DONNERSTAG,08:00,17:00,FREITAG,08:00,16:00
1614,EKT - Krümelmonster e.V.,52.490246805203384,13.379576224188735,Möckernstr.,76,10965,Berlin,traeger@ekt-kruemelmonster.de,+49-30-7862462,http://www.ekt-kruemelmonster.de,48,30,0,"[""Situationsansatz""]","[""Gesundheit"", ""Körper und Bewegung""]",https://kita-navigator.berlin.de/fallback_einrichtung.jpg,MONTAG,08:00,16:00,DIENSTAG,08:00,16:00,MITTWOCH,08:00,16:00,DONNERSTAG,08:00,16:00,FREITAG,08:00,16:00
728229,Kita Ultimo auf dem Holzmarkt,52.511434425244985,13.427085445894523,Holzmarktstr.,25,10243,Berlin,boeker@pfeffersport.de,+49-15168129213,https://www.pfeffersport.de/projekte/kita-am-holzmarkt,12,33,12,"[""Reggio-Pädagogik"", ""Ansatz von Emmi Pikler"", ""Psychomotorik""]","[""Integration von Kindern mit Behinderung"", ""Gesundheit"", ""Körper und Bewegung"", ""Natur- und Umweltpädagogik""]",https://kita-navigator.berlin.de/fallback_einrichtung.jpg,MONTAG,08:00,17:00,DIENSTAG,08:00,17:00,MITTWOCH,08:00,17:00,DONNERSTAG,08:00,17:00,FREITAG,08:00,17:00
853279,Kita Zauberkiste,52.492441320951706,13.376543609096641,Möckernkiez,6,10963,Berlin,info@zauberkiste-berlin.de,+49-3092032222,http://www.zauberkiste-berlin.de,12,12,6,"[""Nachhaltigkeit und Bewegung""]","[""Gesundheit"", ""Körper und Bewegung"", ""Natur- und Umweltpädagogik""]",https://kita-navigator.berlin.de/bilder/einrichtung/853279,MONTAG,07:30,16:30,DIENSTAG,07:30,16:30,MITTWOCH,07:30,16:30,DONNERSTAG,07:30,16:30,FREITAG,07:30,16:00
2404,Kita Mehringdamm 116/Kigä City,52.486438108085764,13.385622231576757,Mehringdamm,116,10965,Berlin,kita.mehringdamm116@kindergaertencity.de,+49-30-70509191,http://www.kindergaerten-city.de/mehringdamm-116,9,104,54,"[""Situationsansatz""]",[],https://kita-navigator.berlin.de/bilder/einrichtung/2404,MONTAG,06:00,18:00,DIENSTAG,06:00,18:00,MITTWOCH,06:00,18:00,DONNERSTAG,06:00,18:00,FREITAG,06:00,18:00
684279,Kita Flottwellpromenade,52.502790384917745,13.37257169560533,Flottwellstr.,44,10785,Berlin,flottwellstrasse@humanistischekitas.de,+49-30-32534630,http://www.humanistischekitas.de,12,29,0,"[""Offene-Arbeit""]","[""Körper und Bewegung"", ""Ästhetische Bildung (Musik und Kunst)""]",https://kita-navigator.berlin.de/bilder/einrichtung/684279,MONTAG,08:00,17:00,DIENSTAG,08:00,17:00,MITTWOCH,08:00,17:00,DONNERSTAG,08:00,17:00,FREITAG,08:00,17:00
2407,Kita Pücklerstr. 12/Kigä City,52.504264617294204,13.43220809909465,Pücklerstr.,12,10997,Berlin,kita.puecklerstr12@kindergaertencity.de,+49-30-22503061,http://www.kindergaerten-city.de/puecklerstr-12,2,104,38,"[""Situationsansatz""]","[""Naturwissenschaftliche Grunderfahrung"", ""Körper und Bewegung""]",https://kita-navigator.berlin.de/bilder/einrichtung/2407,MONTAG,07:00,17:00,DIENSTAG,07:00,17:00,MITTWOCH,07:00,17:00,DONNERSTAG,07:00,17:00,FREITAG,07:00,16:30
100037,EKT Jungle,52.49704826311789,13.432062670811037,Ohlauer Str.,1,10999,Berlin,mail@kita-jungle.de,+49-30-61651161,http://www.kita-jungle.de,12,25,8,"[""Situationsansatz"", ""bilingual (deutsch-französisch)""]","[""Interkulturelle Pädagogik""]",https://kita-navigator.berlin.de/fallback_einrichtung.jpg,MONTAG,08:00,17:00,DIENSTAG,08:00,17:00,MITTWOCH,08:00,17:00,DONNERSTAG,08:00,17:00,FREITAG,08:00,17:00
2438,Waldorfkindertagesstätte im FORUM Kreuzberg,52.5024934394419,13.432959177812466,Eisenbahnstr.,9,10997,Berlin,kita@forumkreuzberg.de,+49-30-611089-13,http://www.forumkreuzberg.de,36,18,2,"[""Waldorfpädagogik""]","[""Integration von Kindern mit Behinderung"", ""Naturwissenschaftliche Grunderfahrung"", ""Religionspädagogik"", ""Körper und Bewegung"", ""Natur- und Umweltpädagogik"", ""Ästhetische Bildung (Musik und Kunst)"", ""Gesundheit""]",https://kita-navigator.berlin.de/bilder/einrichtung/2438,MONTAG,07:30,16:30,DIENSTAG,07:30,16:30,MITTWOCH,07:30,16:30,DONNERSTAG,07:30,16:30,FREITAG,07:30,16:30
910,EKT - Waffelbande,52.49118716533586,13.428011344397222,Friedelstr.,22,12047,Berlin,waffelbande@gmx.de,+49-30-6134474,,9,15,0,"[""Situationsansatz""]","[""Gesundheit"", ""Körper und Bewegung"", ""Natur- und Umweltpädagogik""]",https://kita-navigator.berlin.de/fallback_einrichtung.jpg,MONTAG,08:00,17:00,DIENSTAG,08:00,17:00,MITTWOCH,08:00,17:00,DONNERSTAG,08:00,17:00,FREITAG,08:00,17:00
940,EKT - BuDdelKiste,52.48526476839372,13.386940625095928,Platz der Luftbrücke,1,12101,Berlin,leitung@buddelkiste-berlin.de,+49-30-6931206,https://www.buddelkiste-berlin.de/,18,48,10,"[""Situationsansatz""]","[""Naturwissenschaftliche Grunderfahrung"", ""Gesundheit"", ""Körper und Bewegung"", ""Natur- und Umweltpädagogik""]",https://kita-navigator.berlin.de/bilder/einrichtung/940,MONTAG,06:30,17:00,DIENSTAG,06:30,17:00,MITTWOCH,06:30,16:30,DONNERSTAG,06:30,16:30,FREITAG,06:30,16:00
11,Lichtenberger Straße 32/33,52.5151466105221,13.42389331347632,Lichtenberger Str.,32,10179,Berlin,Kita.Lichtenberger@kindergaertencity.de,+49-30-2492179,http://www.kindergaerten-city.de/lichtenberger-str-32-33,2,190,96,"[""Offene-Arbeit""]","[""Integration von Kindern mit Behinderung""]",https://kita-navigator.berlin.de/bilder/einrichtung/11,MONTAG,06:00,17:30,DIENSTAG,06:00,17:30,MITTWOCH,06:00,17:30,DONNERSTAG,06:00,17:30,FREITAG,06:00,17:30
1109,AWO Kita Kastanie,52.49528159294982,13.431864785699334,Reichenberger Str.,122,10999,Berlin,kastanie@awo-mitte.de,+49-30-6114525,http://www.awo-mitte.de,12,58,24,"[""Situationsansatz""]","[""Integration von Kindern mit Behinderung"", ""Interkulturelle Pädagogik"", ""Ästhetische Bildung (Musik und Kunst)""]",https://kita-navigator.berlin.de/bilder/einrichtung/1109,MONTAG,07:30,16:30,DIENSTAG,07:30,16:30,MITTWOCH,07:30,16:30,DONNERSTAG,07:30,16:30,FREITAG,07:30,16:30
2884,EKT Schippe und Eimer,52.50047017988559,13.433549728175796,Muskauer Str.,55,10997,Berlin,schippe_eimerdino@yahoo.de,+49-30-61657396,http://www.schippeundeimer.de,12,30,0,"[""Situationsansatz""]","[""Integration von Kindern mit Behinderung""]",https://kita-navigator.berlin.de/fallback_einrichtung.jpg,MONTAG,07:00,17:00,DIENSTAG,07:00,17:00,MITTWOCH,07:00,17:00,DONNERSTAG,07:00,17:00,FREITAG,07:00,17:00
534,EKT - Nestwärme,52.501400585946925,13.433672821731637,Wrangelstr.,31,10997,Berlin,antje.lindstedt@nestwaerme-berlin.de,+49-30-61076022,http://www.kita-nestwaerme.de,2,69,21,"[""Ansatz von Emmi Pikler"", ""Early Excellence-Ansatz""]",[],https://kita-navigator.berlin.de/fallback_einrichtung.jpg,MONTAG,07:30,17:00,DIENSTAG,07:30,17:00,MITTWOCH,07:30,17:00,DONNERSTAG,07:30,17:00,FREITAG,07:30,17:00
947229,Kita Lenaustraße,52.490124453649756,13.428013893639424,Lenaustr.,12,12047,Berlin,kitalenau@dtz-bildung.eu,+49-30-25893001,http://www.dtz-bildung.eu,11,25,14,"[""Situationsansatz""]","[""Ästhetische Bildung (Musik und Kunst)""]",https://kita-navigator.berlin.de/fallback_einrichtung.jpg,MONTAG,07:30,17:00,DIENSTAG,07:30,17:00,MITTWOCH,07:30,17:00,DONNERSTAG,07:30,17:00,FREITAG,07:30,17:00
361129,Die kleine Welt,52.49401062178226,13.431824570141659,Forster Str.,17,10999,Berlin,auroville@arcor.de,+49-30-61655720,http://www.schippeundeimer.de,12,19,0,"[""Reggio-Pädagogik"", ""Situationsansatz""]","[""Integration von Kindern mit Behinderung""]",https://kita-navigator.berlin.de/fallback_einrichtung.jpg,MONTAG,08:00,18:00,DIENSTAG,08:00,18:00,MITTWOCH,08:00,18:00,DONNERSTAG,08:00,18:00,FREITAG,08:00,18:00
513229,EKT Katzbachstraße,52.48975725884214,13.376987132639142,Katzbachstr.,29,10965,Berlin,neuesauskreuzberg@gmx.de,+49-30-78717275,,12,22,9,"[""Montessori-Pädagogik""]","[""Natur- und Umweltpädagogik"", ""Interkulturelle Pädagogik"", ""Naturwissenschaftliche Grunderfahrung""]",https://kita-navigator.berlin.de/fallback_einrichtung.jpg,MONTAG,08:00,17:00,DIENSTAG,08:00,17:00,MITTWOCH,08:00,17:00,DONNERSTAG,08:00,17:00,FREITAG,08:00,16:00
885,EKT - Einstürzende Bauklötze,52.48882274415968,13.426879056051687,Hobrechtstr.,17,12047,Berlin,einstbaukloetze9@aol.com,+49-30-6249854,http://www.herzkindergarten.de,24,15,6,"[""Situationsansatz""]","[""Integration von Kindern mit Behinderung"", ""Körper und Bewegung"", ""Natur- und Umweltpädagogik"", ""Gesundheit"", ""Naturwissenschaftliche Grunderfahrung"", ""Ästhetische Bildung (Musik und Kunst)"", ""Interkulturelle Pädagogik"", ""Theaterpädagogik""]",https://kita-navigator.berlin.de/fallback_einrichtung.jpg,MONTAG,07:45,16:45,DIENSTAG,07:45,16:45,MITTWOCH,07:45,16:45,DONNERSTAG,07:45,16:45,FREITAG,07:45,16:45
464129,Kita Sonnenkäferhaus Reuterstraße,52.49062185233883,13.429314445683602,Reuterstr.,37,12047,Berlin,info@sonnenkaeferhaus.de,+49-30-62985880,http://www.sonnenkaeferhaus.de,30,20,0,"[""Ansatz von Emmi Pikler"", ""Waldorfpädagogik""]","[""Körper und Bewegung"", ""Integration von Kindern mit Behinderung"", ""Ästhetische Bildung (Musik und Kunst)""]",https://kita-navigator.berlin.de/fallback_einrichtung.jpg,MONTAG,07:30,16:30,DIENSTAG,07:30,16:30,MITTWOCH,07:30,16:30,DONNERSTAG,07:30,16:30,FREITAG,07:30,16:30
296,Waldorfkindertagesstätte im Forum Kreuzberg,52.50400005633686,13.434499806087599,Eisenbahnstr.,21,10997,Berlin,kita@forumkreuzberg.de,+49-30-611089-13,http://www.forumkreuzberg.de,18,12,12,"[""Ansatz von Emmi Pikler"", ""Waldorfpädagogik""]","[""Körper und Bewegung"", ""Natur- und Umweltpädagogik"", ""Ästhetische Bildung (Musik und Kunst)"", ""Gesundheit"", ""Naturwissenschaftliche Grunderfahrung"", ""Religionspädagogik""]",https://kita-navigator.berlin.de/bilder/einrichtung/296,MONTAG,07:30,16:30,DIENSTAG,07:30,16:30,MITTWOCH,07:30,16:30,DONNERSTAG,07:30,16:30,FREITAG,07:30,16:30
1009,KiBiLuga,52.503087028493624,13.370346250521997,Bissingzeile,15,10785,Berlin,bissingzeile@ortefuerkinder.de,+49-30-2641248,http://www.ortefuerkinder.de/unsere-kitas/kibiluga/,9,101,35,"[""Montessori-Pädagogik""]","[""Körper und Bewegung"", ""Natur- und Umweltpädagogik"", ""Sport""]",https://kita-navigator.berlin.de/bilder/einrichtung/1009,MONTAG,07:00,17:00,DIENSTAG,07:00,17:00,MITTWOCH,07:00,17:00,DONNERSTAG,07:00,17:00,FREITAG,07:00,17:00
919,EKT - Rasselbande,52.48839992064832,13.427131278304492,Weserstr.,212,12047,Berlin,post@kinderladen-rasselbande.de,+49-30-6249591,http://www.kinderladen-rasselbande.de,24,17,4,"[""Situationsansatz""]","[""Integration von Kindern mit Behinderung""]",https://kita-navigator.berlin.de/fallback_einrichtung.jpg,MONTAG,08:00,17:00,DIENSTAG,08:00,17:00,MITTWOCH,08:00,17:00,DONNERSTAG,08:00,17:00,FREITAG,08:00,17:00
1427,EKT -Kwetu,52.48591924343386,13.42300906521781,Lucy-Lameck-Str.,45,12049,Berlin,ekt-kwetu@gmx.net,+49-30-6211049,,12,18,0,"[""Reggio-Pädagogik"", ""Situationsansatz""]","[""Integration von Kindern mit Behinderung"", ""Gesundheit"", ""Ästhetische Bildung (Musik und Kunst)"", ""Interkulturelle Pädagogik""]",https://kita-navigator.berlin.de/fallback_einrichtung.jpg,MONTAG,08:00,17:00,DIENSTAG,08:00,17:00,MITTWOCH,08:00,17:00,DONNERSTAG,08:00,17:00,FREITAG,08:00,17:00
1445,EKT - Ringelsöckchen,52.48591924343386,13.42300906521781,Lucy-Lameck-Str.,45,12049,Berlin,ringel@procuratio.de,+49-30-6222001,,12,14,0,"[""Situationsansatz""]","[""Gesundheit"", ""Körper und Bewegung"", ""Natur- und Umweltpädagogik"", ""Interkulturelle Pädagogik"", ""Ästhetische Bildung (Musik und Kunst)""]",https://kita-navigator.berlin.de/fallback_einrichtung.jpg,MONTAG,08:00,17:00,DIENSTAG,08:00,17:00,MITTWOCH,08:00,17:00,DONNERSTAG,08:00,17:00,FREITAG,08:00,17:00
137129,Kita Leonardo,52.51475281504836,13.427002299807274,Kleine Markusstr.,9,10243,Berlin,leonardo@awo-spree-wuhle.de,+49-30-20095270,,12,83,35,"[""Situationsansatz"", ""Altersmischung""]","[""Integration von Kindern mit Behinderung"", ""Interkulturelle Pädagogik"", ""Naturwissenschaftliche Grunderfahrung"", ""Körper und Bewegung""]",https://kita-navigator.berlin.de/bilder/einrichtung/137129,MONTAG,06:30,17:30,DIENSTAG,06:30,17:30,MITTWOCH,06:30,17:30,DONNERSTAG,06:30,17:30,FREITAG,06:30,17:30
896,Kita Köpenicker Straße 174,52.50416876684451,13.435223145508168,Köpenicker Str.,174,10997,Berlin,kita@forumkreuzberg.de,+49-30-611089-13,http://www.forumkreuzberg.de,36,18,0,"[""Waldorfpädagogik""]","[""Körper und Bewegung"", ""Natur- und Umweltpädagogik"", ""Ästhetische Bildung (Musik und Kunst)"", ""Gesundheit"", ""Religionspädagogik"", ""Naturwissenschaftliche Grunderfahrung""]",https://kita-navigator.berlin.de/bilder/einrichtung/896,MONTAG,07:30,16:30,DIENSTAG,07:30,16:30,MITTWOCH,07:30,16:30,DONNERSTAG,07:30,16:30,FREITAG,07:30,16:30
1543,Waldorfkindertagesstätte im FORUM Kreuzberg,52.50416876684451,13.435223145508168,Köpenicker Str.,174,10997,Berlin,kita@forumkreuzberg.de,+49-30-611089-13,http://www.forumkreuzberg.de,36,15,0,"[""Waldorfpädagogik""]","[""Körper und Bewegung"", ""Natur- und Umweltpädagogik"", ""Ästhetische Bildung (Musik und Kunst)"", ""Gesundheit"", ""Naturwissenschaftliche Grunderfahrung"", ""Religionspädagogik""]",https://kita-navigator.berlin.de/bilder/einrichtung/1543,MONTAG,07:30,16:30,DIENSTAG,07:30,16:30,MITTWOCH,07:30,16:30,DONNERSTAG,07:30,16:30,FREITAG,07:30,16:30
2429,EKT Lindenblüte,52.49596013706923,13.434355271470263,Forster Str.,56,10999,Berlin,kontakt@ekt-lindenbluete.de,+49-30-6117735,http://www.ekt-lindenbluete.de,18,13,4,"[""Situationsansatz"", ""Ansatz von Emmi Pikler"", ""Berliner Bildungsprogramm""]",[],https://kita-navigator.berlin.de/fallback_einrichtung.jpg,MONTAG,08:30,16:30,DIENSTAG,08:30,16:30,MITTWOCH,08:30,16:30,DONNERSTAG,08:30,16:30,FREITAG,08:30,16:30
910229,Kita Köpenicker Straße 175,52.50409551726409,13.43539518814644,Köpenicker Str.,175,10997,Berlin,naturkindergarten@forumkreuzberg.de,+49-17644577933,https://forumkreuzberg.de/s/arbeiten/naturkindergarten/,24,15,3,"[""Waldorfpädagogik""]","[""Natur- und Umweltpädagogik""]",https://kita-navigator.berlin.de/fallback_einrichtung.jpg,MONTAG,07:30,16:30,DIENSTAG,07:30,16:30,MITTWOCH,07:30,16:30,DONNERSTAG,07:30,16:30,FREITAG,07:30,16:30
292129,Kinderinsel MITTEndrin,52.521751570569165,13.401849123967384,Garnisonkirchplatz,2,10178,Berlin,info@kinderinsel-mittendrin.de,+49-30-24723369,http://www.kinderinsel-mittendrin.de,12,23,9,"[""Situationsansatz""]","[""Gesundheit""]",https://kita-navigator.berlin.de/bilder/einrichtung/292129,MONTAG,08:00,17:30,DIENSTAG,08:00,17:30,MITTWOCH,08:00,17:30,DONNERSTAG,08:00,17:30,FREITAG,08:00,17:30
406129,Kinderinsel Nebenan,52.521751570569165,13.401849123967384,Garnisonkirchplatz,2,10178,Berlin,info@kinderinsel-nebenan.de,+49-30-24723369,http://www.kinderinsel-nebenan.de,12,25,10,"[""Situationsansatz""]","[""Körper und Bewegung""]",https://kita-navigator.berlin.de/bilder/einrichtung/406129,MONTAG,08:00,17:30,DIENSTAG,08:00,17:30,MITTWOCH,08:00,17:30,DONNERSTAG,08:00,17:30,FREITAG,08:00,17:30
811,EKT - Macht nix,52.488766569668556,13.376472745343769,Katzbachstr.,12,10965,Berlin,info@machtnixev.de,+49-30-7859144,http://www.machtnixev.de,12,12,15,"[""Situationsansatz""]","[""Gesundheit"", ""Körper und Bewegung""]",https://kita-navigator.berlin.de/bilder/einrichtung/811,MONTAG,08:00,16:00,DIENSTAG,08:00,16:00,MITTWOCH,08:00,16:00,DONNERSTAG,08:00,16:00,FREITAG,08:00,16:00
2992,Kita Kiezkinder,52.48551858898337,13.423372446009381,Lucy-Lameck-Str.,4,12049,Berlin,Vorstand.kiezkinder@googlemail.com,+49-30-6226561,,12,14,8,"[""Offene-Arbeit"", ""Situationsansatz""]","[""Körper und Bewegung"", ""Interkulturelle Pädagogik"", ""Ästhetische Bildung (Musik und Kunst)""]",https://kita-navigator.berlin.de/fallback_einrichtung.jpg,MONTAG,08:00,16:30,DIENSTAG,08:00,16:30,MITTWOCH,08:00,16:30,DONNERSTAG,08:00,16:30,FREITAG,08:00,15:00
897229,Coworking Toddler Maybachufer,52.491996998898145,13.432260043398367,Maybachufer,37,12047,Berlin,kontakt@coworkingtoddler.com,+49-30-89401852,http://www.coworkingtoddler.com,9,25,12,"[""Situationsansatz"", ""Montessori-Pädagogik"", ""Ansatz von Emmi Pikler""]","[""Gesundheit"", ""Körper und Bewegung""]",https://kita-navigator.berlin.de/fallback_einrichtung.jpg,MONTAG,08:00,17:00,DIENSTAG,08:00,17:00,MITTWOCH,08:00,17:00,DONNERSTAG,08:00,17:00,FREITAG,08:00,17:00
2417,"Kindertagesstätte ""Faros""",52.4891617678131,13.375525836528883,Kreuzbergstr.,47,10965,Berlin,kita.faros@diakonie-stadtmitte.de,+49-30-78990740,http://www.diakonie-stadtmitte.de,12,115,20,"[""Offene-Arbeit"", ""Sprachförderung""]",[],https://kita-navigator.berlin.de/bilder/einrichtung/2417,MONTAG,07:00,17:00,DIENSTAG,07:00,17:00,MITTWOCH,07:00,17:00,DONNERSTAG,07:00,17:00,FREITAG,07:00,16:00
2405,Kita Komsu,52.49269080516255,13.433051417630654,Paul-Lincke-Ufer,12,10999,Berlin,komsu@web.de,+49-30,http://www.komsu-kinder.de,12,122,34,"[""bilingual (deutsch-türkisch)""]","[""Integration von Kindern mit Behinderung"", ""Körper und Bewegung"", ""Natur- und Umweltpädagogik"", ""Interkulturelle Pädagogik""]",https://kita-navigator.berlin.de/bilder/einrichtung/2405,MONTAG,06:00,17:00,DIENSTAG,06:00,17:00,MITTWOCH,06:00,17:00,DONNERSTAG,06:00,17:00,FREITAG,06:00,17:00
553229,EKT Al Naml - Die Ameisen,52.48484444403435,13.38256274366308,Dudenstr.,17,10965,Berlin,info@welt-der-kinder-ev.de,+49-30-65836735,http://welt-der-kinder-ev.de,11,25,8,"[""Reggio-Pädagogik"", ""Situationsansatz""]","[""Körper und Bewegung"", ""Natur- und Umweltpädagogik"", ""Interkulturelle Pädagogik""]",https://kita-navigator.berlin.de/fallback_einrichtung.jpg,MONTAG,07:30,17:00,DIENSTAG,07:30,17:00,MITTWOCH,07:30,17:00,DONNERSTAG,07:30,17:00,FREITAG,07:30,17:00
2997,FRÖBEL Kindergarten Stepping Stones,52.50124526482195,13.368687644683952,Lützowstr.,106,10785,Berlin,Luetzowstrasse-berlin@froebel-gruppe.de,+49-30-46997770,http://www.froebel-gruppe.de,2,160,60,"[""Offene-Arbeit""]","[""Gesundheit"", ""Körper und Bewegung""]",https://kita-navigator.berlin.de/bilder/einrichtung/2997,MONTAG,06:30,18:00,DIENSTAG,06:30,18:00,MITTWOCH,06:30,18:00,DONNERSTAG,06:30,18:00,FREITAG,06:30,18:00
1089,Ev. Kita Nikodemus,52.491040942480886,13.431897820940534,Nansenstr.,27,12047,Berlin,kita.nikodemus@veks.de,+49-30-6244969,,8,100,30,"[""Situationsansatz"", ""Religionspädagogik""]","[""Religionspädagogik""]",https://kita-navigator.berlin.de/fallback_einrichtung.jpg,MONTAG,06:00,17:00,DIENSTAG,06:00,17:00,MITTWOCH,06:00,17:00,DONNERSTAG,06:00,17:00,FREITAG,06:00,17:00
766229,FRÖBEL Kindergarten kaleidoscope,52.50298986878173,13.436570414986798,Zeughofstr.,1,10997,Berlin,kaleidoscope-berlin@froebel-gruppe.de,+49-3027016770,https://kaleidoscope.froebel.info/,12,50,17,"[""Offene-Arbeit""]","[""Körper und Bewegung""]",https://kita-navigator.berlin.de/bilder/einrichtung/766229,MONTAG,07:00,18:00,DIENSTAG,07:00,18:00,MITTWOCH,07:00,18:00,DONNERSTAG,07:00,18:00,FREITAG,07:00,18:00
1609,EKT - Kinder einer Erde,52.498726619085645,13.436525739871643,Lübbener Str.,26,10997,Berlin,kinder.einer.erde@hotmail.de,+49-30-6118014,http://www.kindereinererde.de,12,28,14,"[""Interkulturelle Pädagogik""]","[""Natur- und Umweltpädagogik"", ""Interkulturelle Pädagogik"", ""Ästhetische Bildung (Musik und Kunst)"", ""Integration von Kindern mit Behinderung"", ""Naturwissenschaftliche Grunderfahrung"", ""Körper und Bewegung""]",https://kita-navigator.berlin.de/fallback_einrichtung.jpg,MONTAG,08:30,17:30,DIENSTAG,08:30,17:30,MITTWOCH,08:30,17:30,DONNERSTAG,08:30,17:30,FREITAG,08:30,17:30
704229,Kita Jacoby-Schwalbe,52.519856126546394,13.418906464185856,Jacobystr.,4,10179,Berlin,jacoby-schwalbe@casabambini-berlin.de,+49-30-225027940,http://www.casabambini-berlin.de,2,105,39,"[""Situationsansatz""]","[""Körper und Bewegung""]",https://kita-navigator.berlin.de/fallback_einrichtung.jpg,MONTAG,07:00,19:00,DIENSTAG,07:00,19:00,MITTWOCH,07:00,19:00,DONNERSTAG,07:00,19:00,FREITAG,07:00,19:00
2740,Kita BABB Kreuzberg II,52.49327444933573,13.434147230899882,Liegnitzer Str.,17,10999,Berlin,babb-kreuzberg@taeks.de,+49-30-61289737,http://www.taeks.de,36,27,0,"[""Reggio-Pädagogik"", ""Montessori-Pädagogik"", ""Intergration""]","[""Natur- und Umweltpädagogik"", ""Integration von Kindern mit Behinderung"", ""Theaterpädagogik"", ""Interkulturelle Pädagogik""]",https://kita-navigator.berlin.de/bilder/einrichtung/2740,MONTAG,08:00,17:00,DIENSTAG,08:00,17:00,MITTWOCH,08:00,17:00,DONNERSTAG,08:00,17:00,FREITAG,08:00,17:00
959,Kita BABB Kreuzberg I ,52.49377615197238,13.434622879790735,Liegnitzer Str.,14,10999,Berlin,babb-kreuzberg@taeks.de,+49-30-6119754,http://www.taeks.de,8,17,16,"[""Ansatz von Emmi Pikler""]","[""Natur- und Umweltpädagogik"", ""Interkulturelle Pädagogik"", ""Integration von Kindern mit Behinderung"", ""Inklusion""]",https://kita-navigator.berlin.de/bilder/einrichtung/959,MONTAG,08:00,17:00,DIENSTAG,08:00,17:00,MITTWOCH,08:00,17:00,DONNERSTAG,08:00,17:00,FREITAG,08:00,17:00
402129,Kita Zwergplaneten,52.48662677821162,13.427056097034608,Hobrechtstr.,8,12043,Berlin,info@sprache-verbindet.berlin,+49-30-62725482,,12,70,10,"[""Situationsansatz""]","[""Interkulturelle Pädagogik""]",https://kita-navigator.berlin.de/fallback_einrichtung.jpg,MONTAG,07:00,16:00,DIENSTAG,07:00,16:00,MITTWOCH,07:00,16:00,DONNERSTAG,07:00,16:00,FREITAG,07:00,16:00
980,EKT Schokoschnuten,52.49062093964169,13.43222797405587,Pflügerstr.,57,12047,Berlin,schokoschnuten@gmx.net,+49-30-6231289,http://www.kita-schokoschnuten.de,12,25,10,"[""Situationsansatz""]","[""Integration von Kindern mit Behinderung""]",https://kita-navigator.berlin.de/fallback_einrichtung.jpg,MONTAG,06:00,17:00,DIENSTAG,06:00,17:00,MITTWOCH,06:00,17:00,DONNERSTAG,06:00,17:00,FREITAG,06:00,17:00
1200,EKT - Kinderfan,52.491668684418904,13.433267458953484,Maybachufer,39,12047,Berlin,Kita-Kinderfan-eV@web.de,+49-30,,18,17,6,[],"[""Natur- und Umweltpädagogik"", ""Ästhetische Bildung (Musik und Kunst)""]",https://kita-navigator.berlin.de/fallback_einrichtung.jpg,MONTAG,08:00,17:00,DIENSTAG,08:00,17:00,MITTWOCH,08:00,17:00,DONNERSTAG,08:00,17:00,FREITAG,08:00,17:00
2402,Kita Lübbener Str. 6/Kigä City,52.498694863334514,13.437048386197379,Lübbener Str.,6,10997,Berlin,kita.luebbener6@kindergaertencity.de,+49-30-22503002,http://www.kindergaerten-city.de/luebbener-str-6-7,12,48,20,"[""Situationsansatz"", ""Altersmischung in Öffnungsprozessen""]","[""Integration von Kindern mit Behinderung"", ""Interkulturelle Pädagogik""]",https://kita-navigator.berlin.de/bilder/einrichtung/2402,MONTAG,07:30,17:00,DIENSTAG,07:30,17:00,MITTWOCH,07:30,17:00,DONNERSTAG,07:30,17:00,FREITAG,07:30,16:30
1075,Kita Lucy-Lameck-Straße 33 / Kitas SüdOst,52.48388926917274,13.422283457115558,Lucy-Lameck-Str.,33,12049,Berlin,kita-lucy-lameck-strasse@kita-suedost.de,+49-30-62728789-0,,2,153,32,"[""Situationsansatz""]",[],https://kita-navigator.berlin.de/fallback_einrichtung.jpg,MONTAG,07:30,16:30,DIENSTAG,07:30,16:30,MITTWOCH,07:30,16:30,DONNERSTAG,07:30,16:30,FREITAG,07:30,16:30
2582,EKT - Macht nix,52.48852469959934,13.37450798027683,Kreuzbergstr.,43,10965,Berlin,info@machtnixev.de,+49-30-78950708,http://www.machtnixev.de,30,16,0,"[""Situationsansatz""]",[],https://kita-navigator.berlin.de/bilder/einrichtung/2582,MONTAG,08:00,16:00,DIENSTAG,08:00,16:00,MITTWOCH,08:00,16:00,DONNERSTAG,08:00,16:00,FREITAG,08:00,16:00
983,Kinderladen Die kleinen Kivis,52.48355547781637,13.421862423211444,Lucy-Lameck-Str.,31,12049,Berlin,kita.kivi@t-online.de,+49-04930-62722690,http://www.kindervilla-kivi.de,36,25,0,"[""Montessori-Pädagogik""]",[],https://kita-navigator.berlin.de/fallback_einrichtung.jpg,MONTAG,07:45,17:00,DIENSTAG,07:45,17:00,MITTWOCH,07:45,17:00,DONNERSTAG,07:45,17:00,FREITAG,07:45,17:00
902,EKT - Katzbach-Piraten,52.48706468883276,13.376417596757273,Katzbachstr.,19,10965,Berlin,vorstand@katzbachpiraten.de,+49-30-7855540,http://www.katzbachpiraten.de,18,16,4,"[""Situationsansatz""]","[""Körper und Bewegung"", ""Naturwissenschaftliche Grunderfahrung""]",https://kita-navigator.berlin.de/fallback_einrichtung.jpg,MONTAG,07:30,16:00,DIENSTAG,07:30,16:00,MITTWOCH,07:30,16:00,DONNERSTAG,07:30,15:00,FREITAG,07:30,16:00
772,Kita der Kath. Kirchengem. St. Christophorus,52.48867860729915,13.43091990691241,Nansenstr.,7,12047,Berlin,kita@christophorus-berlin.de,+49-30-6234037,,12,75,25,"[""Montessori-Pädagogik"", ""Religionspädagogik""]","[""Integration von Kindern mit Behinderung"", ""Religionspädagogik""]",https://kita-navigator.berlin.de/fallback_einrichtung.jpg,MONTAG,07:00,17:00,DIENSTAG,07:00,17:00,MITTWOCH,07:00,17:00,DONNERSTAG,07:00,17:00,FREITAG,07:00,17:00
341129,EKT Reichenberger Straße,52.49363466327029,13.436093590143972,Reichenberger Str.,82,10999,Berlin,Leitung@spreesprotten.de,+49-30-43920541,,11,15,4,"[""Situationsansatz"", ""Montessori-Pädagogik"", ""Ansatz von Emmi Pikler""]","[""Integration von Kindern mit Behinderung"", ""Gesundheit"", ""Körper und Bewegung"", ""Spielzeugfreie Zeit/ Spielzeugreduzierte Kita""]",https://kita-navigator.berlin.de/fallback_einrichtung.jpg,MONTAG,08:00,17:00,DIENSTAG,08:00,17:00,MITTWOCH,08:00,17:00,DONNERSTAG,08:00,17:00,FREITAG,08:00,17:00
1551,Kita Monumentenbande e.V.,52.487663162578585,13.374298199479103,Monumentenstr.,16,10965,Berlin,post@monumentenbande.de,+49-30-7866868,,18,15,3,[],[],https://kita-navigator.berlin.de/bilder/einrichtung/1551,MONTAG,08:00,17:00,DIENSTAG,08:00,17:00,MITTWOCH,08:00,17:00,DONNERSTAG,08:00,17:00,FREITAG,08:00,17:00
529229,EKT Inselreich,52.483030102295565,13.382436379334948,Manfred-von-Richthofen-Str.,15,12101,Berlin,vorstand@inselreich.org,+49-30-98341380,http://www.inselreich.org,12,25,10,"[""Ansatz von Emmi Pikler""]",[],https://kita-navigator.berlin.de/fallback_einrichtung.jpg,MONTAG,08:00,16:00,DIENSTAG,08:00,16:00,MITTWOCH,08:00,16:00,DONNERSTAG,08:00,16:00,FREITAG,08:00,16:00
915279,Kita am Gleis,52.489821535885866,13.371458317117078,Bautzener Str.,21,10829,Berlin,assistenz@mahalo.berlin,+49-30-40042021,http://www.mahalo.berlin,12,33,11,"[""Reggio-Pädagogik"", ""Offene-Arbeit"", ""Situationsansatz""]","[""Körper und Bewegung"", ""Gesundheit"", ""Integration von Kindern mit Behinderung""]",https://kita-navigator.berlin.de/fallback_einrichtung.jpg,MONTAG,07:00,17:00,DIENSTAG,07:00,17:00,MITTWOCH,07:00,17:00,DONNERSTAG,07:00,17:00,FREITAG,07:00,15:30
426129,Kinderladen IrgendWieAnders,52.49785310496632,13.438667814593092,Oppelner Str.,20,10997,Berlin,info@kinderladen-irgendwieanders.de,+49-30-63962956,,12,24,0,"[""Situationsansatz""]","[""Naturwissenschaftliche Grunderfahrung"", ""Natur- und Umweltpädagogik"", ""Interkulturelle Pädagogik"", ""Ästhetische Bildung (Musik und Kunst)""]",https://kita-navigator.berlin.de/fallback_einrichtung.jpg,MONTAG,08:00,16:00,DIENSTAG,08:00,16:00,MITTWOCH,08:00,16:00,DONNERSTAG,08:00,16:00,FREITAG,08:00,16:00
307,EKT - Kleine Erdenwesen,52.482847917169664,13.423348659633648,Lucy-Lameck-Str.,20,12049,Berlin,vorstand.erdenwesen@gmail.com,+49-30-6217636,,12,17,6,"[""Waldorfpädagogik""]",[],https://kita-navigator.berlin.de/fallback_einrichtung.jpg,MONTAG,08:00,16:30,DIENSTAG,08:00,16:30,MITTWOCH,08:00,16:30,DONNERSTAG,08:00,16:30,FREITAG,08:00,16:00
616,Kita Reuterstr. 72/Kitas SüdOst,52.485398054411014,13.42863898768054,Reuterstr.,73,12043,Berlin,kita-reuterstrasse@kita-suedost.de,+49-30-60902994-0,,12,188,49,"[""Situationsansatz""]","[""Natur- und Umweltpädagogik"", ""Naturwissenschaftliche Grunderfahrung"", ""alltagsintegrierte Sprachbildung""]",https://kita-navigator.berlin.de/fallback_einrichtung.jpg,MONTAG,06:00,18:00,DIENSTAG,06:00,18:00,MITTWOCH,06:00,18:00,DONNERSTAG,06:00,18:00,FREITAG,06:00,18:00
1912,EKT - Bülowstr.,52.49442573504586,13.367141440985769,Bülowstr.,52,10783,Berlin,vorstand@kinderladen-buelowstrasse.de,+49-30-2156102,http://www.kinderladen-buelowstrasse.de,18,15,5,"[""Freinet-Pädagogik"", ""Offene-Arbeit""]","[""Körper und Bewegung""]",https://kita-navigator.berlin.de/bilder/einrichtung/1912,MONTAG,08:00,16:00,DIENSTAG,08:00,16:00,MITTWOCH,08:00,16:00,DONNERSTAG,08:00,16:00,FREITAG,08:00,16:00
380,EKT Makke,52.49251547649566,13.436721034092024,Glogauer Str.,22,10999,Berlin,ektmakke_ev@t-online.de,+49-30,,24,16,5,"[""Situationsansatz"", ""Waldorfpädagogik""]","[""Natur- und Umweltpädagogik"", ""Integration von Kindern mit Behinderung"", ""Körper und Bewegung""]",https://kita-navigator.berlin.de/fallback_einrichtung.jpg,MONTAG,08:00,17:00,DIENSTAG,08:00,17:00,MITTWOCH,08:00,17:00,DONNERSTAG,08:00,17:00,FREITAG,08:00,17:00
979,"Kita ""Rotkäppchen""",52.487509448448414,13.431912980403187,Pannierstr.,10,12047,Berlin,lebenswelt@lebenswelt-berlin.org,+49-30-6243682,http://www.lebenswelt-berlin.org,12,62,22,"[""Situationsansatz"", ""interkulturelle Erziehung""]","[""Integration von Kindern mit Behinderung"", ""Körper und Bewegung"", ""Natur- und Umweltpädagogik"", ""Gesundheit"", ""Naturwissenschaftliche Grunderfahrung"", ""Ästhetische Bildung (Musik und Kunst)"", ""Interkulturelle Pädagogik"", ""Theaterpädagogik""]",https://kita-navigator.berlin.de/bilder/einrichtung/979,MONTAG,07:00,17:00,DIENSTAG,07:00,17:00,MITTWOCH,07:00,17:00,DONNERSTAG,07:00,17:00,FREITAG,07:00,17:00
2490,EKT - Spreesprotte,52.49315772545994,13.437355227371093,Glogauer Str.,26,10999,Berlin,Leitung@spreesprotten.de,+49-30-43920541,,11,35,12,"[""Situationsansatz"", ""Montessori-Pädagogik"", ""Ansatz von Emmi Pikler""]","[""Körper und Bewegung"", ""Integration von Kindern mit Behinderung"", ""Gesundheit"", ""Spielzeugfreie Zeit/ Spielzeugreduzierte Kita""]",https://kita-navigator.berlin.de/fallback_einrichtung.jpg,MONTAG,08:00,17:00,DIENSTAG,08:00,17:00,MITTWOCH,08:00,17:00,DONNERSTAG,08:00,17:00,FREITAG,08:00,17:00
1526,Kita Pan,52.486654204213686,13.431084748814248,Pannierstr.,6,12047,Berlin,pannier@fsd-kita1.de,+49-30-6241091,http://www.fsd-kita1.de,9,55,6,"[""Early Excellence""]",[],https://kita-navigator.berlin.de/fallback_einrichtung.jpg,MONTAG,07:45,16:45,DIENSTAG,07:45,16:45,MITTWOCH,07:45,16:45,DONNERSTAG,07:45,16:45,FREITAG,07:45,16:45
1429,Kinderladen Hobi,52.484088804404124,13.427274773089161,Mainzer Str.,5,12053,Berlin,kinderladen.hobi@gmail.com,+49-30-6237301,http://www.kinderladen-hobi.de,24,15,0,"[""Situationsansatz""]",[],https://kita-navigator.berlin.de/fallback_einrichtung.jpg,MONTAG,08:30,17:00,DIENSTAG,08:30,17:00,MITTWOCH,08:30,17:00,DONNERSTAG,08:30,17:00,FREITAG,08:30,16:00
